status,timestamp_ms,rtc_iso8601,rtc_unix,pressure_hpa,temperature_c,altitude_m,acc_x,acc_y,acc_z,pitch_deg,yaw_deg,roll_deg,aspd_status,aspd_pressure_pa,aspd_temp_c,aspd_airspeed_mps,mpxv_adc,mpxv_v_adc,mpxv_v_sensor,hx711_raw,gnss_lat,gnss_lon,gnss_alt_m,gnss_fix,gnss_siv,esc_time_ms,esc_throttle,esc_current_a,esc_voltage_v,esc_mah,esc_temp_c,esc_power_pct,esc_vbec_v,esc_rpm,esc_err,pressure_hpa_f,temperature_c_f,altitude_m_f,aspd_pressure_pa_f,aspd_temp_c_f,aspd_airspeed_mps_f,mpxv_adc_f,mpxv_v_adc_f,mpxv_v_sensor_f,hx711_f,gnss_lat_f,gnss_lon_f,gnss_alt_m_f,esc_throttle_f,esc_current_a_f,esc_voltage_v_f,esc_temp_c_f,esc_power_pct_f,esc_vbec_v_f,esc_rpm_f,acc_x_raw,acc_y_raw,acc_z_raw,gyro_x,gyro_y,gyro_z,mag_x,mag_y,mag_z,lin_x,lin_y,lin_z,grav_x,grav_y,grav_z,acc_x_f,acc_y_f,acc_z_f,gyro_x_f,gyro_y_f,gyro_z_f,mag_x_f,mag_y_f,mag_z_f,lin_x_f,lin_y_f,lin_z_f,grav_x_f,grav_y_f,grav_z_f,mw_roll_deg,mw_pitch_deg,mw_yaw_deg,roll_raw,pitch_raw,yaw_raw,ekf_flags,ekf_x_m,ekf_y_m,ekf_z_m,ekf_vx_mps,ekf_vy_mps,ekf_vz_mps,ekf_speed_mps,ekf_pos_h_unc_m,ekf_pos_v_unc_m,ekf_vel_unc_mps,ekf_lat,ekf_lon,ekf_alt_m,imu_samples,imu_lin_rms_mps2,imu_gyro_rms_rps,imu_lin_max_mps2,imu_gyro_max_rps,imu_reset_count,imu_acc_accuracy,imu_gyro_accuracy,imu_mag_accuracy,imu_lin_accuracy,imu_grav_accuracy,imu_quat_accuracy,imu_quat_rad_accuracy,gnss_h_acc_m,gnss_v_acc_m,gnss_speed_acc_mps,gnss_heading_deg,gnss_heading_acc_deg,log_dt_ms,log_overrun_count,sd_write_error_count,baro_age_ms,gnss_age_ms,airspeed_age_ms,esc_age_ms
LOGGING,407982,2026-04-06T17:57:59,1775498279,993.76,33.53,163.54,1.272,1.797,9.227,0,-1.69,0,255,0,0,0,0,0,0,0,0,0,0,0,0,0,0,0,0,0,0,0,0,0,255,993.76,33.51,163.58,0,0,0,0,0,0,0,0,0,0,0,0,0,0,0,0,0,1.301,1.801,9.195,0,0,0,-3.688,29.312,44.312,-0.008,-0.035,-0.047,1.266,1.797,9.234,1.272,1.797,9.227,0,0,0,-3.868,34.191,44.799,0,0,0,1.27,1.8,9.23,0.22,0.88,3.25,11.01,-7.68,-26.78,9,0,0,101.586,0,0,0.998,1,7.07,3.08,6.93,0,0,101.59,4,0.004,0,0.0049,0,0,2,0,3,3,3,3,0.0483,0,0,0,0,0,0,6,0,1,-1,-1,-1
LOGGING,408024,2026-04-06T17:57:59,1775498279,993.76,33.53,163.54,1.273,1.797,9.225,0,-1.75,0,255,0,0,0,0,0,0,0,0,0,0,0,0,0,0,0,0,0,0,0,0,0,255,993.76,33.51,163.58,0,0,0,0,0,0,0,0,0,0,0,0,0,0,0,0,0,1.301,1.801,9.195,0,0,0,-3.688,29.312,44.312,-0.008,0.004,-0.047,1.273,1.797,9.242,1.273,1.797,9.225,0,0,0,-3.868,34.191,44.799,0,0,-0.01,1.27,1.8,9.23,0.22,0.88,3.27,11.01,-7.68,-26.78,9,0,0,101.628,0,0,0.997,1,7.08,3.08,6.93,0,0,101.63,1,0.0083,0,0.0083,0,0,2,0,3,3,3,3,0.0483,0,0,0,0,0,42,6,0,43,-1,-1,-1
LOGGING,408061,2026-04-06T17:57:59,1775498279,993.76,33.53,163.54,1.275,1.797,9.228,0,-1.78,0,255,0,0,0,0,0,0,0,0,0,0,0,0,0,0,0,0,0,0,0,0,0,255,993.76,33.51,163.57,0,0,0,0,0,0,0,0,0,0,0,0,0,0,0,0,0,1.301,1.801,9.266,0,0,0,-3.688,29.312,44.312,-0.008,0.004,-0.047,1.273,1.797,9.242,1.275,1.797,9.228,0,0,0,-3.868,34.191,44.799,0,0,-0.01,1.27,1.8,9.23,0.24,0.97,3.6,11.01,-7.68,-26.78,9,0,0,110.351,0,0,3.838,3.84,7.09,2.87,6.92,0,0,110.35,2,0.0083,0,0.0083,0,0,2,0,3,3,3,3,0.0483,0,0,0,0,0,37,6,0,1,-1,-1,-1
LOGGING,408102,2026-04-06T17:57:59,1775498279,993.76,33.53,163.54,1.276,1.797,9.23,0,-1.86,0,255,0,0,0,0,0,0,0,0,0,0,0,0,0,0,0,0,0,0,0,0,0,255,993.76,33.51,163.57,0,0,0,0,0,0,0,0,0,0,0,0,0,0,0,0,0,1.227,1.762,9.266,0,0,0,-3.688,29.312,44.312,0.027,0.004,-0.012,1.273,1.797,9.242,1.276,1.797,9.23,0,0,0,-3.868,34.191,44.799,0,0,0,1.27,1.8,9.24,0.26,1.05,3.88,11.01,-7.68,-26.82,9,0,0,110.5,0,0,3.839,3.84,7.11,2.88,6.92,0,0,110.5,4,0.0047,0,0.0054,0,0,2,0,3,3,3,3,0.0491,0,0,0,0,0,41,6,0,42,-1,-1,-1
LOGGING,408153,2026-04-06T17:57:59,1775498279,993.76,33.53,163.56,1.273,1.796,9.235,0,-1.99,0,255,0,0,0,0,0,0,0,0,0,0,0,0,0,0,0,0,0,0,0,0,0,255,993.76,33.51,163.57,0,0,0,0,0,0,0,0,0,0,0,0,0,0,0,0,0,1.266,1.801,9.23,0,0,0,-3.375,29.688,44.812,-0.008,0.004,-0.004,1.273,1.797,9.234,1.273,1.796,9.235,0,0,0,-3.855,34.076,44.799,0,0,-0.01,1.27,1.8,9.24,0.3,1.19,4.38,11.01,-7.68,-26.83,9,0,0,114.119,0,-0.001,6.872,6.87,7.15,2.81,6.89,0,0,114.12,3,0.0052,0,0.0054,0,0,2,0,3,3,3,3,0.0496,0,0,0,0,0,51,6,0,2,-1,-1,-1
LOGGING,408196,2026-04-06T17:57:59,1775498279,993.76,33.53,163.56,1.272,1.797,9.23,0,-2.09,0,255,0,0,0,0,0,0,0,0,0,0,0,0,0,0,0,0,0,0,0,0,0,255,993.76,33.51,163.57,0,0,0,0,0,0,0,0,0,0,0,0,0,0,0,0,0,1.266,1.801,9.195,0,0,0,-3.375,29.688,44.812,-0.008,0.004,-0.039,1.273,1.797,9.234,1.272,1.797,9.23,0,0,0,-3.849,34.018,44.799,0,0,-0.01,1.27,1.8,9.24,0.33,1.3,4.76,11.01,-7.69,-26.85,9,0,0,114.404,0,-0.001,6.873,6.87,7.19,2.84,6.9,0,0,114.4,2,0.0089,0,0.0089,0,0,2,0,3,3,3,3,0.0496,0,0,0,0,0,43,6,0,45,-1,-1,-1
LOGGING,408243,2026-04-06T17:57:59,1775498279,993.76,33.53,163.57,1.271,1.802,9.227,-0.01,-2.12,0,255,0,0,0,0,0,0,0,0,0,0,0,0,0,0,0,0,0,0,0,0,0,255,993.76,33.52,163.57,0,0,0,0,0,0,0,0,0,0,0,0,0,0,0,0,0,1.266,1.801,9.195,0,0,0,-3.375,29.688,44.812,-0.008,0.043,0.035,1.273,1.797,9.234,1.271,1.802,9.227,0,0,0,-3.849,34.018,44.799,0,0,0,1.27,1.8,9.24,0.33,1.31,4.8,11.01,-7.68,-26.86,9,0,0,116.656,0,-0.001,9.54,9.54,7.24,2.81,6.84,0,0,116.66,3,0.0076,0,0.0084,0,0,2,0,3,3,3,3,0.05,0,0,0,0,0,47,6,0,1,-1,-1,-1
LOGGING,408287,2026-04-06T17:57:59,1775498279,993.76,33.53,163.57,1.27,1.801,9.223,-0.01,-2.17,0,255,0,0,0,0,0,0,0,0,0,0,0,0,0,0,0,0,0,0,0,0,0,255,993.76,33.52,163.57,0,0,0,0,0,0,0,0,0,0,0,0,0,0,0,0,0,1.266,1.801,9.16,0,0,0,-3.375,29.688,44.812,-0.008,0.004,-0.078,1.273,1.797,9.234,1.27,1.801,9.223,0,0,0,-3.849,34.018,44.799,0,0.01,0,1.27,1.8,9.24,0.36,1.41,5.18,11.01,-7.68,-26.86,9,0,0,117.047,0,-0.001,9.542,9.54,7.3,2.85,6.84,0,0,117.05,2,0.0086,0,0.01,0,0,2,0,3,3,3,3,0.05,0,0,0,0,0,44,6,0,45,-1,-1,-1
LOGGING,408327,2026-04-06T17:57:59,1775498279,993.76,33.53,163.57,1.269,1.797,9.216,-0.01,-2.21,0,255,0,0,0,0,0,0,0,0,0,0,0,0,0,0,0,0,0,0,0,0,0,255,993.76,33.52,163.57,0,0,0,0,0,0,0,0,0,0,0,0,0,0,0,0,0,1.266,1.801,9.195,0,0,0,-4.125,30.438,44.75,-0.008,0.004,-0.078,1.273,1.797,9.227,1.269,1.797,9.216,0,0,0,-3.854,33.95,44.798,0,0.01,-0.01,1.27,1.8,9.23,0.39,1.51,5.55,11.01,-7.68,-26.86,9,0,0,118.61,0,-0.001,11.49,11.49,7.36,2.82,6.76,0,0,118.61,2,0.01,0,0.01,0,0,2,0,3,3,3,3,0.05,0,0,0,0,0,40,6,0,2,-1,-1,-1
LOGGING,408365,2026-04-06T17:57:59,1775498279,993.76,33.53,163.57,1.269,1.797,9.215,-0.01,-2.24,0,255,0,0,0,0,0,0,0,0,0,0,0,0,0,0,0,0,0,0,0,0,0,255,993.76,33.52,163.57,0,0,0,0,0,0,0,0,0,0,0,0,0,0,0,0,0,1.266,1.801,9.195,0,0,0,-4.125,30.438,44.75,-0.008,0.004,0.043,1.273,1.797,9.227,1.269,1.797,9.215,0,0,0,-3.859,33.883,44.797,0,0.01,0,1.27,1.8,9.23,0.39,1.51,5.55,11.01,-7.68,-26.86,9,0,0,119.057,0,0,11.493,11.49,7.42,2.87,6.77,0,0,119.06,1,0.0067,0,0.0067,0,0,2,0,3,3,3,3,0.05,0,0,0,0,0,38,6,0,40,-1,-1,-1
LOGGING,408391,2026-04-06T17:57:59,1775498279,993.76,33.53,163.59,1.268,1.793,9.225,-0.01,-2.26,0,255,0,0,0,0,0,0,0,0,0,0,0,0,0,0,0,0,0,0,0,0,0,255,993.76,33.52,163.58,0,0,0,0,0,0,0,0,0,0,0,0,0,0,0,0,0,1.266,1.762,9.309,0,0,0,-4.062,28.312,45.562,-0.008,-0.035,0.082,1.273,1.797,9.227,1.268,1.793,9.225,0,0,0,-3.867,33.662,44.828,0,0.01,0,1.27,1.8,9.23,0.4,1.57,5.74,11.01,-7.68,-26.86,9,0,0,120.021,0,0,12.69,12.69,7.47,2.83,6.68,0,0,120.02,2,0.0107,0,0.0123,0,0,2,0,3,3,3,3,0.05,0,0,0,0,0,26,6,0,2,-1,-1,-1
LOGGING,408438,2026-04-06T17:57:59,1775498279,993.76,33.53,163.59,1.268,1.799,9.23,-0.01,-2.29,-0.01,255,0,0,0,0,0,0,0,0,0,0,0,0,0,0,0,0,0,0,0,0,0,255,993.76,33.52,163.58,0,0,0,0,0,0,0,0,0,0,0,0,0,0,0,0,0,1.266,1.801,9.23,0,0,0,-3.75,31.062,44,-0.008,-0.035,0.035,1.273,1.797,9.234,1.268,1.799,9.23,0,0,0,-3.862,33.548,44.791,0,0,0.01,1.27,1.8,9.23,0.44,1.68,6.13,11.01,-7.68,-26.86,9,0,0,120.591,0,0,12.696,12.7,7.55,2.88,6.69,0,0,120.59,2,0.0095,0,0.0102,0,0,2,0,3,3,3,3,0.05,0,0,0,0,0,47,6,0,49,-1,-1,-1
LOGGING,408509,2026-04-06T17:57:59,1775498279,993.75,33.53,163.62,1.272,1.799,9.226,-0.01,-2.35,-0.01,255,0,0,0,0,0,0,0,0,0,0,0,0,0,0,0,0,0,0,0,0,0,255,993.76,33.52,163.58,0,0,0,0,0,0,0,0,0,0,0,0,0,0,0,0,0,1.266,1.801,9.16,0,0,0,-3.75,31.062,44,-0.008,-0.035,0.035,1.273,1.797,9.234,1.272,1.799,9.226,0,0,0,-3.862,33.548,44.791,-0.01,0,0.01,1.27,1.8,9.23,0.49,1.86,6.77,11.01,-7.68,-26.86,9,0,0,121.706,0,0,13.096,13.1,7.7,2.88,6.57,0,0,121.71,2,0.0102,0,0.0102,0,0,2,0,3,3,3,3,0.05,0,0,0,0,0,71,7,0,1,-1,-1,-1
LOGGING,408551,2026-04-06T17:57:59,1775498279,993.75,33.53,163.62,1.271,1.8,9.223,-0.01,-2.41,-0.01,255,0,0,0,0,0,0,0,0,0,0,0,0,0,0,0,0,0,0,0,0,0,255,993.76,33.52,163.58,0,0,0,0,0,0,0,0,0,0,0,0,0,0,0,0,0,1.266,1.801,9.23,0,0,0,-4.438,30.438,44.812,-0.008,0.004,-0.004,1.273,1.797,9.234,1.271,1.8,9.223,0,0,0,-3.885,33.214,44.787,0,0.01,0.01,1.27,1.8,9.23,0.52,1.96,7.13,11.01,-7.69,-27.03,9,0,0,122.312,0,0,13.102,13.1,7.81,2.94,6.58,0,0,122.31,2,0.0127,0,0.0135,0,0,2,0,3,3,3,3,0.0474,0,0,0,0,0,42,7,0,43,-1,-1,-1
LOGGING,408604,2026-04-06T17:57:59,1775498279,993.75,33.53,163.62,1.271,1.8,9.219,-0.01,-2.5,-0.01,255,0,0,0,0,0,0,0,0,0,0,0,0,0,0,0,0,0,0,0,0,0,255,993.75,33.52,163.59,0,0,0,0,0,0,0,0,0,0,0,0,0,0,0,0,0,1.301,1.801,9.266,0,0,0,-4.438,30.438,44.812,-0.008,0.004,-0.039,1.273,1.797,9.234,1.271,1.8,9.219,0,0,0,-3.898,33.148,44.788,0,0.01,0.01,1.27,1.8,9.23,0.55,2.07,7.53,11.01,-7.69,-27.06,9,0,0,122.782,0,0,12.833,12.83,7.94,2.91,6.46,0,0,122.78,3,0.0089,0,0.0119,0,0,2,0,3,3,3,3,0.0461,0,0,0,0,0,53,7,0,1,-1,-1,-1
LOGGING,408641,2026-04-06T17:57:59,1775498279,993.75,33.53,163.62,1.276,1.8,9.219,-0.01,-2.57,-0.01,255,0,0,0,0,0,0,0,0,0,0,0,0,0,0,0,0,0,0,0,0,0,255,993.75,33.52,163.59,0,0,0,0,0,0,0,0,0,0,0,0,0,0,0,0,0,1.301,1.801,9.195,0,0,0,-4.438,30.438,44.812,-0.008,0.004,-0.039,1.273,1.797,9.234,1.276,1.8,9.219,0,0,0,-3.898,33.148,44.788,0,0.01,0,1.27,1.8,9.23,0.59,2.19,7.92,11.01,-7.69,-27.06,9,0,0,123.314,0,0,12.838,12.84,8.05,2.96,6.48,0,0,123.31,2,0.0061,0,0.0061,0,0,2,0,3,3,3,3,0.0461,0,0,0,0,0,37,7,0,38,-1,-1,-1
LOGGING,408672,2026-04-06T17:57:59,1775498279,993.75,33.53,163.6,1.274,1.8,9.217,-0.01,-2.58,-0.01,255,0,0,0,0,0,0,0,0,0,0,0,0,0,0,0,0,0,0,0,0,0,255,993.75,33.53,163.59,0,0,0,0,0,0,0,0,0,0,0,0,0,0,0,0,0,1.266,1.801,9.23,0,0,0,-3.812,36.062,43.625,-0.008,0.004,-0.031,1.273,1.797,9.227,1.274,1.8,9.217,0,0,0,-3.896,33.213,44.761,0,0.01,0,1.27,1.8,9.23,0.59,2.19,7.92,11.01,-7.69,-27.06,9,0,0,123.334,0,0,12.272,12.27,8.13,2.9,6.37,0,0,123.33,2,0.0069,0,0.0069,0,0,2,0,3,3,3,3,0.0461,0,0,0,0,0,31,7,0,1,-1,-1,-1
LOGGING,408715,2026-04-06T17:57:59,1775498279,993.75,33.53,163.6,1.268,1.805,9.214,-0.01,-2.66,-0.01,255,0,0,0,0,0,0,0,0,0,0,0,0,0,0,0,0,0,0,0,0,0,255,993.75,33.53,163.59,0,0,0,0,0,0,0,0,0,0,0,0,0,0,0,0,0,1.266,1.801,9.195,0,0,0,-3.688,28.312,44.312,-0.008,0.004,-0.031,1.273,1.797,9.227,1.268,1.805,9.214,0,0,0,-3.89,33.17,44.726,0,0.01,0,1.27,1.8,9.23,0.62,2.29,8.28,11.01,-7.69,-27.12,9,0,0,123.843,0,0,12.276,12.28,8.25,2.95,6.39,0,0,123.84,2,0.0069,0,0.0069,0,0,2,0,3,3,3,3,0.0444,0,0,0,0,0,43,7,0,44,-1,-1,-1
LOGGING,408757,2026-04-06T17:57:59,1775498279,993.75,33.53,163.63,1.263,1.804,9.211,-0.01,-2.7,-0.01,255,0,0,0,0,0,0,0,0,0,0,0,0,0,0,0,0,0,0,0,0,0,255,993.75,33.53,163.6,0,0,0,0,0,0,0,0,0,0,0,0,0,0,0,0,0,1.227,1.801,9.199,0,0,0,-4.562,33.562,44.812,-0.008,0.004,0.004,1.273,1.797,9.227,1.263,1.804,9.211,0,0,0,-3.917,33.086,44.721,0,0.01,0,1.27,1.8,9.23,0.65,2.39,8.65,11.01,-7.69,-27.12,9,0,0,123.84,0,0,11.489,11.49,8.38,2.91,6.31,0,0,123.84,3,0.0069,0,0.0069,0,0,2,0,3,3,3,3,0.0444,0,0,0,0,0,42,7,0,1,-1,-1,-1
LOGGING,408825,2026-04-06T17:57:59,1775498279,993.75,33.53,163.63,1.27,1.803,9.219,-0.01,-2.75,-0.01,255,0,0,0,0,0,0,0,0,0,0,0,0,0,0,0,0,0,0,0,0,0,255,993.75,33.53,163.61,0,0,0,0,0,0,0,0,0,0,0,0,0,0,0,0,0,1.301,1.801,9.23,0,0,0,-4.562,33.562,44.812,0,0.004,-0.039,1.273,1.797,9.227,1.27,1.803,9.219,0,0,0,-3.917,33.086,44.721,0,0,0,1.27,1.8,9.23,0.7,2.54,9.2,11.01,-7.69,-27.12,9,0,0,124.021,-0.001,0,10.698,10.7,8.59,2.89,6.25,0,0,124.02,2,0.0076,0,0.0084,0,0,2,0,3,3,3,3,0.0444,0,0,0,0,0,68,8,0,1,-1,-1,-1
LOGGING,408861,2026-04-06T17:57:59,1775498279,993.75,33.53,163.63,1.271,1.798,9.221,-0.01,-2.79,-0.01,255,0,0,0,0,0,0,0,0,0,0,0,0,0,0,0,0,0,0,0,0,0,255,993.75,33.53,163.61,0,0,0,0,0,0,0,0,0,0,0,0,0,0,0,0,0,1.266,1.762,9.227,0,0,0,-4.562,33.562,44.812,0,0.004,-0.039,1.273,1.797,9.227,1.271,1.798,9.221,0,0,0,-3.917,33.086,44.721,0,0,-0.01,1.27,1.8,9.23,0.73,2.64,9.55,11.01,-7.69,-27.12,9,0,0,124.459,-0.001,0,10.698,10.7,8.72,2.93,6.27,0,0,124.46,2,0.0084,0,0.0084,0,0,2,0,3,3,3,3,0.0444,0,0,0,0,0,36,8,0,37,-1,-1,-1
LOGGING,408899,2026-04-06T17:57:59,1775498279,993.75,33.53,163.63,1.275,1.791,9.221,-0.01,-2.84,-0.01,255,0,0,0,0,0,0,0,0,0,0,0,0,0,0,0,0,0,0,0,0,0,255,993.75,33.53,163.61,0,0,0,0,0,0,0,0,0,0,0,0,0,0,0,0,0,1.266,1.762,9.27,0,0,0,-3.75,32.562,44.375,-0.008,0.004,0.051,1.273,1.797,9.219,1.275,1.791,9.221,0,0,0,-3.913,33.074,44.713,0,0,0,1.27,1.8,9.23,0.75,2.71,9.81,11.01,-7.69,-27.18,9,0,0,124.198,-0.001,0,9.882,9.88,8.83,2.89,6.21,0,0,124.2,2,0.0074,0,0.0084,0,0,2,0,3,3,3,3,0.0437,0,0,0,0,0,38,8,0,1,-1,-1,-1
LOGGING,408942,2026-04-06T17:58:00,1775498280,993.75,33.53,163.63,1.272,1.787,9.225,-0.01,-2.93,-0.01,255,0,0,0,0,0,0,0,0,0,0,0,0,0,0,0,0,0,0,0,0,0,255,993.75,33.53,163.61,0,0,0,0,0,0,0,0,0,0,0,0,0,0,0,0,0,1.266,1.801,9.23,0,0,0,-3.75,32.562,44.375,-0.008,0.004,0.012,1.273,1.797,9.219,1.272,1.787,9.225,0,0,0,-3.91,33.062,44.705,0,0,0,1.27,1.8,9.23,0.78,2.82,10.19,11.01,-7.69,-27.19,9,0,0,124.665,-0.001,0.001,9.881,9.88,9,2.93,6.24,0,0,124.67,3,0.0064,0,0.0064,0,0,2,0,3,3,3,3,0.0427,0,0,0,0,0,43,8,0,44,-1,-1,-1
LOGGING,409027,2026-04-06T17:58:00,1775498280,993.75,33.53,163.63,1.274,1.794,9.225,-0.01,-3.04,-0.01,255,0,0,0,0,0,0,0,0,0,0,0,0,0,0,0,0,0,0,0,0,0,255,993.75,33.53,163.62,0,0,0,0,0,0,0,0,0,0,0,0,0,0,0,0,0,1.301,1.84,9.27,0,0,0,-3.75,32.562,44.375,0.027,-0.035,0.012,1.273,1.797,9.219,1.274,1.794,9.225,0,0,0,-3.91,33.062,44.705,0,0,0,1.27,1.8,9.23,0.84,2.99,10.83,11.01,-7.7,-27.2,9,0,0,124.61,-0.001,0.001,8.843,8.84,9.3,2.92,6.21,0,0,124.61,3,0.0042,0,0.0064,0,0,2,0,3,3,3,3,0.0442,0,0,0,0,0,85,9,0,2,-1,-1,-1
LOGGING,409063,2026-04-06T17:58:00,1775498280,993.75,33.53,163.63,1.274,1.797,9.232,-0.01,-3.05,-0.01,255,0,0,0,0,0,0,0,0,0,0,0,0,0,0,0,0,0,0,0,0,0,255,993.75,33.53,163.62,0,0,0,0,0,0,0,0,0,0,0,0,0,0,0,0,0,1.266,1.801,9.266,0,0,0,-3.75,32.562,44.375,-0.008,0.004,-0.023,1.273,1.797,9.219,1.274,1.797,9.232,0,0,0,-3.91,33.062,44.705,0,0,0,1.27,1.8,9.23,0.84,2.99,10.83,11.01,-7.7,-27.2,9,0,0,124.967,-0.001,0.001,8.839,8.84,9.45,2.95,6.23,0,0,124.97,2,0.0029,0,0.0029,0,0,2,0,3,3,3,3,0.0442,0,0,0,0,0,36,9,0,38,-1,-1,-1
LOGGING,409097,2026-04-06T17:58:00,1775498280,993.75,33.53,163.63,1.28,1.798,9.236,-0.01,-3.09,-0.01,255,0,0,0,0,0,0,0,0,0,0,0,0,0,0,0,0,0,0,0,0,0,255,993.75,33.53,163.62,0,0,0,0,0,0,0,0,0,0,0,0,0,0,0,0,0,1.301,1.801,9.305,0,0,0,-4.812,29.688,44.75,0.027,0.004,0.004,1.273,1.797,9.227,1.28,1.798,9.236,0,0,0,-3.92,33.024,44.706,0,0,0,1.27,1.8,9.23,0.85,3.04,11.02,11.01,-7.7,-27.2,9,0,0,124.478,-0.001,0.001,7.959,7.96,9.57,2.9,6.19,0,0,124.48,4,0.0055,0,0.0057,0,0,2,0,3,3,3,3,0.0447,0,0,0,0,0,34,9,0,1,-1,-1,-1
LOGGING,409142,2026-04-06T17:58:00,1775498280,993.75,33.53,163.63,1.277,1.798,9.234,-0.01,-3.13,-0.01,255,0,0,0,0,0,0,0,0,0,0,0,0,0,0,0,0,0,0,0,0,0,255,993.75,33.53,163.62,0,0,0,0,0,0,0,0,0,0,0,0,0,0,0,0,0,1.227,1.801,9.156,0,0,0,-4.812,29.688,44.75,-0.008,0.004,0.004,1.273,1.797,9.227,1.277,1.798,9.234,0,0,0,-3.95,32.91,44.707,0,0,0.01,1.27,1.8,9.23,0.86,3.05,11.06,11.01,-7.7,-27.2,9,0,0,124.865,-0.001,0,7.951,7.95,9.76,2.93,6.21,0,0,124.86,2,0.0074,0,0.0076,0,0,2,0,3,3,3,3,0.0452,0,0,0,0,0,45,9,0,46,-1,-1,-1
LOGGING,409186,2026-04-06T17:58:00,1775498280,993.75,33.53,163.65,1.274,1.799,9.23,-0.01,-3.18,-0.01,255,0,0,0,0,0,0,0,0,0,0,0,0,0,0,0,0,0,0,0,0,0,255,993.75,33.53,163.63,0,0,0,0,0,0,0,0,0,0,0,0,0,0,0,0,0,1.266,1.801,9.23,0,0,0,-4.812,29.688,44.75,-0.008,0.004,0.004,1.273,1.797,9.227,1.274,1.799,9.23,0,0,0,-3.95,32.91,44.707,0,0,0.01,1.27,1.8,9.23,0.86,3.06,11.08,11.01,-7.7,-27.2,9,0,0,124.446,-0.001,0,7.133,7.13,9.93,2.89,6.19,0,0,124.45,3,0.0071,0,0.0071,0,0,2,0,3,3,3,3,0.0452,0,0,0,0,0,44,9,0,1,-1,-1,-1
LOGGING,409221,2026-04-06T17:58:00,1775498280,993.75,33.53,163.65,1.273,1.799,9.23,-0.02,-3.22,-0.01,255,0,0,0,0,0,0,0,0,0,0,0,0,0,0,0,0,0,0,0,0,0,255,993.75,33.53,163.63,0,0,0,0,0,0,0,0,0,0,0,0,0,0,0,0,0,1.266,1.801,9.23,0,0,0,-4.812,29.688,44.75,0.027,0.004,0.043,1.273,1.797,9.227,1.273,1.799,9.23,0,0,0,-3.95,32.91,44.707,0,0,0.01,1.27,1.8,9.23,0.86,3.06,11.08,11.01,-7.7,-27.2,9,0,0,124.727,0,0,7.123,7.12,10.09,2.92,6.21,0,0,124.73,2,0.0124,0,0.0124,0,0,2,0,3,3,3,3,0.0452,0,0,0,0,0,35,9,0,36,-1,-1,-1
LOGGING,409255,2026-04-06T17:58:00,1775498280,993.75,33.53,163.65,1.273,1.799,9.233,-0.02,-3.27,-0.01,255,0,0,0,0,0,0,0,0,0,0,0,0,0,0,0,0,0,0,0,0,0,255,993.75,33.53,163.63,0,0,0,0,0,0,0,0,0,0,0,0,0,0,0,0,0,1.266,1.801,9.266,0,0,0,-3.75,32.188,45.25,-0.008,0.004,0.043,1.273,1.797,9.227,1.273,1.799,9.233,0,0,0,-3.941,32.876,44.733,0,0,0.02,1.27,1.8,9.23,0.88,3.14,11.37,11.01,-7.7,-27.19,9,0,0,124.296,0,0,6.419,6.42,10.23,2.87,6.19,0,0,124.3,1,0.016,0,0.016,0,0,2,0,3,3,3,3,0.0466,0,0,0,0,0,34,9,0,1,-1,-1,-1
LOGGING,409299,2026-04-06T17:58:00,1775498280,993.75,33.53,163.65,1.273,1.804,9.23,-0.02,-3.31,-0.01,255,0,0,0,0,0,0,0,0,0,0,0,0,0,0,0,0,0,0,0,0,0,255,993.75,33.53,163.63,0,0,0,0,0,0,0,0,0,0,0,0,0,0,0,0,0,1.301,1.801,9.23,0,0,0,-3.75,32.188,43.938,0.027,0.004,0.004,1.273,1.797,9.227,1.273,1.804,9.23,0,0,0,-3.931,32.841,44.693,0.01,0,0.02,1.27,1.8,9.23,0.92,3.23,11.72,11.01,-7.7,-27.19,9,0,0,124.569,0,0,6.406,6.41,10.41,2.9,6.22,0,0,124.57,2,0.0203,0,0.0207,0,0,2,0,3,3,3,3,0.0466,0,0,0,0,0,44,9,0,45,-1,-1,-1
LOGGING,409346,2026-04-06T17:58:00,1775498280,993.75,33.53,163.61,1.274,1.798,9.221,-0.02,-3.37,-0.01,255,0,0,0,0,0,0,0,0,0,0,0,0,0,0,0,0,0,0,0,0,0,255,993.75,33.53,163.63,0,0,0,0,0,0,0,0,0,0,0,0,0,0,0,0,0,1.266,1.762,9.156,0,0,0,-3.75,32.188,43.938,-0.008,-0.035,-0.07,1.273,1.797,9.227,1.274,1.798,9.221,0,0,0,-3.931,32.841,44.693,0.01,0,0.01,1.27,1.8,9.23,0.96,3.35,12.15,11.01,-7.7,-27.19,9,0,0,124.231,0,-0.001,5.728,5.73,10.63,2.87,6.21,0,0,124.23,2,0.0158,0,0.0199,0,0,2,0,3,3,3,3,0.0457,0,0,0,0,0,47,9,0,1,-1,-1,-1
LOGGING,409385,2026-04-06T17:58:00,1775498280,993.75,33.53,163.61,1.273,1.799,9.222,-0.02,-3.41,-0.01,255,0,0,0,0,0,0,0,0,0,0,0,0,0,0,0,0,0,0,0,0,0,255,993.75,33.53,163.63,0,0,0,0,0,0,0,0,0,0,0,0,0,0,0,0,0,1.266,1.801,9.23,0,0,0,-3.75,32.188,43.938,-0.008,-0.035,-0.07,1.273,1.797,9.227,1.273,1.799,9.222,0,0,0,-3.931,32.841,44.693,0.01,0,0.01,1.27,1.8,9.23,0.98,3.43,12.46,11.01,-7.7,-27.19,9,0,0,124.444,0,-0.001,5.712,5.71,10.79,2.89,6.24,0,0,124.44,2,0.0103,0,0.0103,0,0,2,0,3,3,3,3,0.0457,0,0,0,0,0,39,9,0,40,-1,-1,-1
LOGGING,409414,2026-04-06T17:58:00,1775498280,993.75,33.53,163.6,1.272,1.797,9.227,-0.02,-3.45,0,255,0,0,0,0,0,0,0,0,0,0,0,0,0,0,0,0,0,0,0,0,0,255,993.75,33.53,163.62,0,0,0,0,0,0,0,0,0,0,0,0,0,0,0,0,0,1.266,1.762,9.227,0,0,0,-3.75,32.188,43.938,-0.008,0.004,0.004,1.273,1.797,9.227,1.272,1.797,9.227,0,0,0,-3.931,32.841,44.693,0.01,0,0.01,1.27,1.8,9.23,1.01,3.5,12.7,11.02,-7.7,-27.18,9,0,0,124.044,0,-0.001,5.134,5.13,10.93,2.85,6.23,0,0,124.04,2,0.0087,0,0.0087,0,0,2,0,3,3,3,3,0.0461,0,0,0,0,0,29,9,0,1,-1,-1,-1
LOGGING,409464,2026-04-06T17:58:00,1775498280,993.75,33.53,163.6,1.272,1.795,9.229,-0.02,-3.49,0,255,0,0,0,0,0,0,0,0,0,0,0,0,0,0,0,0,0,0,0,0,0,255,993.75,33.53,163.62,0,0,0,0,0,0,0,0,0,0,0,0,0,0,0,0,0,1.301,1.801,9.266,0,0,0,-3.75,32.188,43.938,-0.008,0.004,0.004,1.273,1.797,9.227,1.272,1.795,9.229,0,0,0,-3.931,32.841,44.693,0,0,0,1.27,1.8,9.23,1.01,3.51,12.75,11.02,-7.7,-27.18,9,0,0,123.826,0,-0.002,4.646,4.65,11.16,2.83,6.24,0,0,123.83,4,0.0053,0,0.0087,0,0,2,0,3,3,3,3,0.0466,0,0,0,0,0,50,9,0,1,-1,-1,-1
LOGGING,409537,2026-04-06T17:58:00,1775498280,993.75,33.53,163.6,1.272,1.795,9.241,-0.02,-3.56,0,255,0,0,0,0,0,0,0,0,0,0,0,0,0,0,0,0,0,0,0,0,0,255,993.75,33.53,163.61,0,0,0,0,0,0,0,0,0,0,0,0,0,0,0,0,0,1.266,1.84,9.309,0,0,0,-2.688,31.062,44.375,-0.008,0.004,0.004,1.273,1.797,9.234,1.272,1.795,9.241,0,0,0,-3.89,32.783,44.682,0,0,0,1.27,1.8,9.23,1.06,3.67,13.34,11.02,-7.7,-27.18,9,0,0,123.711,0.001,-0.002,4.185,4.18,11.49,2.82,6.27,0,0,123.71,3,0.0029,0,0.0029,0,0,2,0,3,3,3,3,0.0466,0,0,0,0,0,73,10,0,1,-1,-1,-1
LOGGING,409585,2026-04-06T17:58:00,1775498280,993.75,33.53,163.6,1.271,1.795,9.239,-0.02,-3.6,0,255,0,0,0,0,0,0,0,0,0,0,0,0,0,0,0,0,0,0,0,0,0,255,993.75,33.53,163.61,0,0,0,0,0,0,0,0,0,0,0,0,0,0,0,0,0,1.266,1.762,9.199,0,0,0,-2.688,31.062,44.375,-0.008,0.004,0.004,1.273,1.797,9.234,1.271,1.795,9.239,0,0,0,-3.87,32.754,44.677,0,0,0,1.27,1.8,9.23,1.1,3.77,13.75,11.02,-7.7,-27.18,9,0,0,123.917,0.001,-0.002,4.151,4.15,11.72,2.85,6.3,0,0,123.92,3,0.0023,0,0.0029,0,0,2,0,3,3,3,3,0.0466,0,0,0,0,0,48,10,0,49,-1,-1,-1
LOGGING,409627,2026-04-06T17:58:00,1775498280,993.75,33.53,163.61,1.27,1.795,9.24,-0.02,-3.64,-0.01,255,0,0,0,0,0,0,0,0,0,0,0,0,0,0,0,0,0,0,0,0,0,255,993.75,33.53,163.61,0,0,0,0,0,0,0,0,0,0,0,0,0,0,0,0,0,1.266,1.801,9.23,0,0,0,-2.688,31.062,44.375,0,0.004,-0.004,1.266,1.797,9.234,1.27,1.795,9.24,0,0,0,-3.87,32.754,44.677,0,0,0.01,1.27,1.8,9.23,1.13,3.87,14.11,11.02,-7.7,-27.18,9,0,-0.001,123.66,0.001,-0.003,3.713,3.71,11.93,2.82,6.31,0,0,123.66,3,0.0084,0,0.0089,0,0,2,0,3,3,3,3,0.0466,0,0,0,0,0,42,10,0,1,-1,-1,-1
LOGGING,409662,2026-04-06T17:58:00,1775498280,993.75,33.53,163.61,1.269,1.8,9.23,-0.02,-3.64,-0.01,255,0,0,0,0,0,0,0,0,0,0,0,0,0,0,0,0,0,0,0,0,0,255,993.75,33.53,163.61,0,0,0,0,0,0,0,0,0,0,0,0,0,0,0,0,0,1.266,1.801,9.23,0,0,0,-2.688,31.062,44.375,0,0.004,-0.004,1.266,1.797,9.234,1.269,1.8,9.23,0,0,0,-3.87,32.754,44.677,0,0,0.01,1.27,1.8,9.23,1.13,3.87,14.12,11.02,-7.7,-27.18,9,0,-0.001,123.794,0,-0.003,3.685,3.69,12.11,2.84,6.33,0,0,123.79,2,0.0074,0,0.0074,0,0,2,0,3,3,3,3,0.0466,0,0,0,0,0,35,10,0,36,-1,-1,-1
LOGGING,409705,2026-04-06T17:58:00,1775498280,993.75,33.53,163.61,1.272,1.797,9.227,-0.02,-3.67,0,255,0,0,0,0,0,0,0,0,0,0,0,0,0,0,0,0,0,0,0,0,0,255,993.75,33.53,163.61,0,0,0,0,0,0,0,0,0,0,0,0,0,0,0,0,0,1.266,1.762,9.199,0,0,0,-4.125,32.562,44.875,0,-0.035,-0.031,1.266,1.797,9.227,1.272,1.797,9.227,0,0,0,-3.883,32.744,44.687,0,0,0,1.27,1.8,9.23,1.16,3.95,14.43,11.02,-7.7,-27.17,9,0,-0.001,123.533,0,-0.003,3.284,3.28,12.3,2.82,6.34,0,0,123.53,3,0.007,0,0.0074,0,0,2,0,3,3,3,3,0.0471,0,0,0,0,0,43,10,0,1,-1,-1,-1
LOGGING,409743,2026-04-06T17:58:00,1775498280,993.75,33.53,163.61,1.27,1.794,9.217,-0.02,-3.71,0,255,0,0,0,0,0,0,0,0,0,0,0,0,0,0,0,0,0,0,0,0,0,255,993.75,33.53,163.61,0,0,0,0,0,0,0,0,0,0,0,0,0,0,0,0,0,1.266,1.801,9.16,0,0,0,-4.125,32.562,44.875,0.035,0.004,-0.031,1.266,1.797,9.227,1.27,1.794,9.217,0,0,0,-3.883,32.744,44.687,0.01,0,0,1.27,1.8,9.23,1.2,4.05,14.79,11.02,-7.7,-27.17,9,0,-0.001,123.671,0.001,-0.004,3.247,3.25,12.51,2.83,6.38,0,0,123.67,2,0.0072,0,0.0072,0,0,2,0,3,3,3,3,0.0471,0,0,0,0,0,38,10,0,39,-1,-1,-1
LOGGING,409778,2026-04-06T17:58:00,1775498280,993.76,33.53,163.56,1.27,1.795,9.219,-0.02,-3.71,0,255,0,0,0,0,0,0,0,0,0,0,0,0,0,0,0,0,0,0,0,0,0,255,993.75,33.53,163.6,0,0,0,0,0,0,0,0,0,0,0,0,0,0,0,0,0,1.266,1.801,9.23,0,0,0,-4.125,32.562,44.875,0,0.004,0.004,1.266,1.797,9.227,1.27,1.795,9.219,0,0,0,-3.883,32.744,44.687,0,0,0,1.27,1.8,9.23,1.2,4.05,14.79,11.01,-7.69,-27.17,9,0,-0.001,123.394,0.001,-0.004,2.876,2.88,12.66,2.81,6.38,0,0,123.39,2,0.0059,0,0.0059,0,0,2,0,3,3,3,3,0.0442,0,0,0,0,0,35,10,0,2,-1,-1,-1
LOGGING,409813,2026-04-06T17:58:00,1775498280,993.76,33.53,163.56,1.269,1.791,9.211,-0.02,-3.71,0,255,0,0,0,0,0,0,0,0,0,0,0,0,0,0,0,0,0,0,0,0,0,255,993.75,33.53,163.6,0,0,0,0,0,0,0,0,0,0,0,0,0,0,0,0,0,1.266,1.762,9.156,0,0,0,-4.125,32.562,44.875,0,0.004,0.004,1.266,1.797,9.227,1.269,1.791,9.211,0,0,0,-3.883,32.744,44.687,0,0,0,1.27,1.8,9.23,1.2,4.05,14.79,11.01,-7.69,-27.17,9,0,-0.001,123.508,0.001,-0.004,2.838,2.84,12.87,2.83,6.41,0,0,123.51,2,0.0059,0,0.0059,0,0,2,0,3,3,3,3,0.0442,0,0,0,0,0,35,10,0,37,-1,-1,-1
LOGGING,409854,2026-04-06T17:58:00,1775498280,993.76,33.53,163.56,1.274,1.79,9.206,-0.02,-3.74,0,255,0,0,0,0,0,0,0,0,0,0,0,0,0,0,0,0,0,0,0,0,0,255,993.75,33.53,163.6,0,0,0,0,0,0,0,0,0,0,0,0,0,0,0,0,0,1.301,1.801,9.195,0,0,0,-3.688,28.938,44.312,0.035,0.004,-0.031,1.266,1.797,9.227,1.274,1.79,9.206,0,0,0,-3.88,32.681,44.681,0.01,-0.01,-0.01,1.27,1.8,9.23,1.22,4.11,15.03,11.01,-7.69,-27.17,9,0,-0.001,123.286,0.001,-0.005,2.492,2.49,13.08,2.81,6.43,0,0,123.29,6,0.0152,0,0.0183,0,0,2,0,3,3,3,3,0.0442,0,0,0,0,0,41,10,0,17,-1,-1,-1
LOGGING,409897,2026-04-06T17:58:00,1775498280,993.76,33.53,163.56,1.276,1.796,9.212,-0.02,-3.74,0,255,0,0,0,0,0,0,0,0,0,0,0,0,0,0,0,0,0,0,0,0,0,255,993.75,33.53,163.59,0,0,0,0,0,0,0,0,0,0,0,0,0,0,0,0,0,1.266,1.84,9.27,0,0,0,-3.688,28.938,44.312,0,0.004,-0.07,1.266,1.797,9.227,1.276,1.796,9.212,0,0,0,-3.873,32.555,44.669,0.01,0,-0.02,1.27,1.8,9.23,1.22,4.12,15.08,11.01,-7.69,-27.17,9,0,-0.002,123.093,0.001,-0.005,2.185,2.18,13.28,2.79,6.45,0,0,123.09,2,0.0224,0,0.0224,0,0,2,0,3,3,3,3,0.0442,0,0,0,0,0,43,10,0,1,-1,-1,-1
LOGGING,409935,2026-04-06T17:58:00,1775498280,993.76,33.53,163.56,1.276,1.795,9.209,-0.02,-3.78,0,255,0,0,0,0,0,0,0,0,0,0,0,0,0,0,0,0,0,0,0,0,0,255,993.75,33.53,163.59,0,0,0,0,0,0,0,0,0,0,0,0,0,0,0,0,0,1.266,1.762,9.156,0,0,0,-3.688,28.938,44.312,0,0.004,-0.07,1.266,1.797,9.227,1.276,1.795,9.209,0,0,0,-3.873,32.555,44.669,0.01,0,-0.02,1.27,1.8,9.23,1.23,4.12,15.1,11.01,-7.69,-27.17,9,0,-0.002,123.181,0.002,-0.005,2.138,2.14,13.5,2.8,6.48,0,0,123.18,2,0.0224,0,0.0224,0,0,2,0,3,3,3,3,0.0442,0,0,0,0,0,38,10,0,39,-1,-1,-1
LOGGING,409976,2026-04-06T17:58:01,1775498281,993.76,33.53,163.55,1.273,1.795,9.212,-0.02,-3.79,0,255,0,0,0,0,0,0,0,0,0,0,0,0,0,0,0,0,0,0,0,0,0,255,993.76,33.53,163.58,0,0,0,0,0,0,0,0,0,0,0,0,0,0,0,0,0,1.301,1.762,9.199,0,0,0,-4.062,28.312,44.312,0,0.012,0.004,1.266,1.789,9.227,1.273,1.795,9.212,0,0,0,-3.878,32.453,44.66,0.01,0,-0.02,1.27,1.8,9.23,1.23,4.14,15.15,11.01,-7.69,-27.17,9,0,-0.002,122.997,0.002,-0.006,1.841,1.84,13.72,2.79,6.5,0,0,123,4,0.0252,0,0.028,0,0,2,0,3,3,3,3,0.0442,0,0,0,0,0,41,10,0,11,-1,-1,-1
LOGGING,410047,2026-04-06T17:58:01,1775498281,993.76,33.53,163.56,1.272,1.791,9.212,-0.02,-3.85,0,255,0,0,0,0,0,0,0,0,0,0,0,0,0,0,0,0,0,0,0,0,0,255,993.76,33.53,163.58,0,0,0,0,0,0,0,0,0,0,0,0,0,0,0,0,0,1.266,1.762,9.199,0,0,0,-4.062,28.312,44.312,0,0.012,0.004,1.266,1.789,9.227,1.272,1.791,9.212,0,0,0,-3.882,32.351,44.651,0.01,0,-0.02,1.27,1.8,9.23,1.29,4.3,15.76,11.01,-7.69,-27.17,9,0,-0.002,122.869,0.003,-0.007,1.529,1.53,14.08,2.78,6.54,0,0,122.87,2,0.0242,0,0.0242,0,0,2,0,3,3,3,3,0.0442,0,0,0,0,0,71,10,0,1,-1,-1,-1
LOGGING,410085,2026-04-06T17:58:01,1775498281,993.76,33.53,163.56,1.272,1.791,9.212,-0.02,-3.85,0,255,0,0,0,0,0,0,0,0,0,0,0,0,0,0,0,0,0,0,0,0,0,255,993.76,33.53,163.58,0,0,0,0,0,0,0,0,0,0,0,0,0,0,0,0,0,1.266,1.762,9.199,0,0,0,-4.062,28.312,44.312,0,-0.027,0.004,1.266,1.789,9.227,1.272,1.791,9.212,0,0,0,-3.882,32.351,44.651,0.01,-0.01,-0.02,1.27,1.8,9.23,1.29,4.3,15.76,11.01,-7.69,-27.17,9,0,-0.003,122.926,0.003,-0.007,1.479,1.48,14.29,2.8,6.57,0,0,122.93,1,0.0216,0,0.0216,0,0,2,0,3,3,3,3,0.0442,0,0,0,0,0,38,10,0,39,-1,-1,-1
LOGGING,410116,2026-04-06T17:58:01,1775498281,993.76,33.53,163.56,1.271,1.793,9.217,-0.02,-3.88,0,255,0,0,0,0,0,0,0,0,0,0,0,0,0,0,0,0,0,0,0,0,0,255,993.76,33.53,163.58,0,0,0,0,0,0,0,0,0,0,0,0,0,0,0,0,0,1.266,1.801,9.195,0,0,0,-4.125,30.75,44.438,0,0.012,0.035,1.266,1.789,9.227,1.271,1.793,9.217,0,0,0,-3.888,32.313,44.646,0.01,0,-0.01,1.27,1.8,9.23,1.32,4.37,16.03,11.01,-7.69,-27.17,9,0.001,-0.003,122.748,0.004,-0.007,1.226,1.23,14.47,2.78,6.59,0,0,122.75,2,0.0143,0,0.0143,0,0,2,0,3,3,3,3,0.0442,0,0,0,0,0,31,10,0,1,-1,-1,-1
LOGGING,410157,2026-04-06T17:58:01,1775498281,993.76,33.53,163.56,1.272,1.787,9.205,-0.02,-3.92,0,255,0,0,0,0,0,0,0,0,0,0,0,0,0,0,0,0,0,0,0,0,0,255,993.76,33.53,163.58,0,0,0,0,0,0,0,0,0,0,0,0,0,0,0,0,0,1.266,1.801,9.23,0,0,0,-4.125,30.75,44.438,0.035,-0.027,-0.078,1.266,1.789,9.227,1.272,1.787,9.205,0,0,0,-3.894,32.276,44.641,0.01,0,-0.01,1.27,1.8,9.23,1.35,4.46,16.39,11.01,-7.69,-27.17,9,0.001,-0.003,122.8,0.004,-0.008,1.168,1.17,14.7,2.79,6.62,0,0,122.8,4,0.0139,0,0.0179,0,0,2,0,3,3,3,3,0.0442,0,0,0,0,0,41,10,0,42,-1,-1,-1
LOGGING,410228,2026-04-06T17:58:01,1775498281,993.76,33.53,163.56,1.271,1.789,9.21,-0.02,-3.94,0,255,0,0,0,0,0,0,0,0,0,0,0,0,0,0,0,0,0,0,0,0,0,255,993.76,33.53,163.57,0,0,0,0,0,0,0,0,0,0,0,0,0,0,0,0,0,1.266,1.762,9.199,0,0,0,-3.688,27.562,46.5,0,-0.027,-0.039,1.266,1.789,9.234,1.271,1.789,9.21,0,0,0,-3.883,32.028,44.739,0.01,0,-0.01,1.27,1.8,9.23,1.41,4.6,16.92,11.01,-7.69,-27.18,9,0.001,-0.004,122.651,0.004,-0.008,0.867,0.87,15.07,2.79,6.67,0,0,122.65,3,0.0152,0,0.0166,0,0,2,0,3,3,3,3,0.0464,0,0,0,0,0,71,11,0,1,-1,-1,-1
LOGGING,410267,2026-04-06T17:58:01,1775498281,993.76,33.53,163.56,1.273,1.79,9.217,-0.02,-3.97,0,255,0,0,0,0,0,0,0,0,0,0,0,0,0,0,0,0,0,0,0,0,0,255,993.76,33.53,163.57,0,0,0,0,0,0,0,0,0,0,0,0,0,0,0,0,0,1.266,1.801,9.23,0,0,0,-3.688,27.562,46.5,0,0.012,-0.004,1.266,1.789,9.234,1.273,1.79,9.217,0,0,0,-3.883,32.028,44.739,0,0,-0.01,1.27,1.79,9.23,1.45,4.7,17.32,11.01,-7.69,-27.18,9,0.001,-0.004,122.687,0.005,-0.008,0.806,0.81,15.31,2.8,6.7,0,0,122.69,2,0.0138,0,0.0145,0,0,2,0,3,3,3,3,0.0464,0,0,0,0,0,39,11,0,40,-1,-1,-1
LOGGING,410299,2026-04-06T17:58:01,1775498281,993.76,33.53,163.55,1.272,1.787,9.219,-0.02,-3.97,0,255,0,0,0,0,0,0,0,0,0,0,0,0,0,0,0,0,0,0,0,0,0,255,993.76,33.53,163.57,0,0,0,0,0,0,0,0,0,0,0,0,0,0,0,0,0,1.266,1.762,9.227,0,0,0,-4.062,27.938,45.625,0,0.012,-0.004,1.266,1.789,9.234,1.272,1.787,9.219,0,0,0,-3.889,31.89,44.769,0,0,-0.01,1.27,1.79,9.23,1.47,4.76,17.54,11.01,-7.69,-27.18,9,0.001,-0.004,122.512,0.005,-0.009,0.579,0.58,15.47,2.78,6.71,0,0,122.51,3,0.0131,0,0.0131,0,0,2,0,3,3,3,3,0.0469,0,0,0,0,0,32,11,0,1,-1,-1,-1
LOGGING,410344,2026-04-06T17:58:01,1775498281,993.76,33.53,163.55,1.271,1.787,9.227,-0.02,-4.01,0,255,0,0,0,0,0,0,0,0,0,0,0,0,0,0,0,0,0,0,0,0,0,255,993.76,33.53,163.57,0,0,0,0,0,0,0,0,0,0,0,0,0,0,0,0,0,1.266,1.762,9.27,0,0,0,-4.062,27.938,45.625,0.035,0.012,-0.004,1.266,1.789,9.234,1.271,1.787,9.227,0,0,0,-3.892,31.821,44.784,0.01,0,-0.01,1.27,1.79,9.23,1.52,4.86,17.94,11.01,-7.69,-27.18,9,0.002,-0.005,122.54,0.005,-0.009,0.504,0.5,15.76,2.8,6.76,0,0,122.54,3,0.0136,0,0.0139,0,0,2,0,3,3,3,3,0.0469,0,0,0,0,0,45,11,0,46,-1,-1,-1
LOGGING,410390,2026-04-06T17:58:01,1775498281,993.76,33.53,163.55,1.273,1.787,9.229,-0.02,-4,0,255,0,0,0,0,0,0,0,0,0,0,0,0,0,0,0,0,0,0,0,0,0,255,993.76,33.53,163.56,0,0,0,0,0,0,0,0,0,0,0,0,0,0,0,0,0,1.301,1.801,9.23,0,0,0,-4.062,27.938,45.625,0,0.012,0.043,1.266,1.789,9.234,1.273,1.787,9.229,0,0,0,-3.892,31.821,44.784,0.01,0,0,1.27,1.79,9.23,1.52,4.88,17.99,11.01,-7.69,-27.19,9,0.002,-0.005,122.382,0.005,-0.009,0.273,0.27,15.99,2.78,6.78,0,0,122.38,3,0.0086,0,0.0093,0,0,2,0,3,3,3,3,0.0476,0,0,0,0,0,46,11,0,2,-1,-1,-1
LOGGING,410434,2026-04-06T17:58:01,1775498281,993.76,33.53,163.55,1.273,1.789,9.238,-0.02,-3.99,0,255,0,0,0,0,0,0,0,0,0,0,0,0,0,0,0,0,0,0,0,0,0,255,993.76,33.53,163.56,0,0,0,0,0,0,0,0,0,0,0,0,0,0,0,0,0,1.266,1.801,9.305,0,0,0,-4.062,28.312,45.625,0,-0.027,-0.004,1.266,1.789,9.234,1.273,1.789,9.238,0,0,0,-3.896,31.735,44.805,0.01,0,0,1.27,1.79,9.23,1.53,4.88,18.01,11,-7.69,-27.2,9,0.002,-0.006,122.394,0.006,-0.009,0.197,0.2,16.27,2.8,6.82,0,0,122.39,2,0.0064,0,0.0071,0,0,2,0,3,3,3,3,0.0461,0,0,0,0,0,44,11,0,46,-1,-1,-1
LOGGING,410481,2026-04-06T17:58:01,1775498281,993.76,33.53,163.56,1.272,1.791,9.238,-0.02,-3.97,0,255,0,0,0,0,0,0,0,0,0,0,0,0,0,0,0,0,0,0,0,0,0,255,993.76,33.53,163.56,0,0,0,0,0,0,0,0,0,0,0,0,0,0,0,0,0,1.266,1.801,9.305,0,0,0,-4.438,27.938,44.75,0,0.012,-0.004,1.266,1.789,9.234,1.272,1.791,9.238,0,0,0,-3.928,31.457,44.822,0,0,0,1.27,1.79,9.23,1.53,4.88,18.02,11,-7.69,-27.21,9,0.002,-0.006,122.249,0.006,-0.01,-0.017,0.02,16.52,2.78,6.85,0,0,122.25,4,0.0062,0,0.0069,0,0,2,0,3,3,3,3,0.0464,0,0,0,0,0,47,11,0,1,-1,-1,-1
LOGGING,410549,2026-04-06T17:58:01,1775498281,993.76,33.53,163.56,1.27,1.789,9.247,-0.02,-3.97,0,255,0,0,0,0,0,0,0,0,0,0,0,0,0,0,0,0,0,0,0,0,0,255,993.76,33.53,163.56,0,0,0,0,0,0,0,0,0,0,0,0,0,0,0,0,0,1.266,1.762,9.27,0,0,0,-4.438,27.938,44.75,0,0.012,0.074,1.266,1.789,9.234,1.27,1.789,9.247,0,0,0,-3.928,31.457,44.822,0,0,0.01,1.27,1.79,9.23,1.53,4.89,18.04,11,-7.69,-27.21,9,0.003,-0.007,122.119,0.006,-0.01,-0.252,0.25,16.94,2.78,6.9,0,0,122.12,1,0.0137,0,0.0137,0,0,2,0,3,3,3,3,0.0464,0,0,0,0,0,68,12,0,1,-1,-1,-1
LOGGING,410591,2026-04-06T17:58:01,1775498281,993.76,33.53,163.56,1.264,1.79,9.244,-0.02,-4,0,255,0,0,0,0,0,0,0,0,0,0,0,0,0,0,0,0,0,0,0,0,0,255,993.76,33.53,163.56,0,0,0,0,0,0,0,0,0,0,0,0,0,0,0,0,0,1.227,1.801,9.227,0,0,0,-3.625,26.875,45.5,0,0.012,0.074,1.266,1.789,9.234,1.264,1.79,9.244,0,0,0,-3.911,31.205,44.859,0,0,0.01,1.27,1.79,9.23,1.57,4.98,18.37,11,-7.69,-27.21,9,0.003,-0.007,122.108,0.006,-0.01,-0.317,0.32,17.18,2.79,6.94,0,0,122.11,1,0.0137,0,0.0137,0,0,2,0,3,3,3,3,0.0464,0,0,0,0,0,42,12,0,43,-1,-1,-1
LOGGING,410629,2026-04-06T17:58:01,1775498281,993.76,33.53,163.56,1.269,1.787,9.243,-0.02,-4.04,0,255,0,0,0,0,0,0,0,0,0,0,0,0,0,0,0,0,0,0,0,0,0,255,993.76,33.53,163.56,0,0,0,0,0,0,0,0,0,0,0,0,0,0,0,0,0,1.266,1.801,9.266,0,0,0,-3.625,26.875,45.5,0,-0.035,-0.004,1.266,1.789,9.234,1.269,1.787,9.243,0,0,0,-3.911,31.205,44.859,0,0,0.01,1.27,1.79,9.23,1.61,5.06,18.69,11,-7.69,-27.21,9,0.003,-0.008,121.993,0.006,-0.011,-0.483,0.48,17.42,2.77,6.96,0,0,121.99,2,0.013,0,0.0137,0,0,2,0,3,3,3,3,0.0464,0,0,0,0,0,38,12,0,1,-1,-1,-1
LOGGING,410658,2026-04-06T17:58:01,1775498281,993.76,33.53,163.56,1.268,1.79,9.244,-0.02,-4.04,0,255,0,0,0,0,0,0,0,0,0,0,0,0,0,0,0,0,0,0,0,0,0,255,993.76,33.53,163.56,0,0,0,0,0,0,0,0,0,0,0,0,0,0,0,0,0,1.266,1.801,9.266,0,0,0,-5.188,28.688,43.875,0,0.004,0.035,1.266,1.789,9.234,1.268,1.79,9.244,0,0,0,-3.957,31.116,44.824,0,-0.01,0.01,1.27,1.79,9.23,1.63,5.11,18.88,11,-7.68,-27.24,9,0.003,-0.008,121.977,0.006,-0.011,-0.535,0.54,17.61,2.78,6.99,0,0,121.98,3,0.0109,0,0.0121,0,0,2,0,3,3,3,3,0.0486,0,0,0,0,0,29,12,0,30,-1,-1,-1
LOGGING,410707,2026-04-06T17:58:01,1775498281,993.76,33.53,163.56,1.272,1.793,9.241,-0.02,-4.07,0,255,0,0,0,0,0,0,0,0,0,0,0,0,0,0,0,0,0,0,0,0,0,255,993.76,33.53,163.56,0,0,0,0,0,0,0,0,0,0,0,0,0,0,0,0,0,1.266,1.801,9.195,0,0,0,-5.188,28.688,43.875,0.035,0.004,-0.004,1.266,1.789,9.234,1.272,1.793,9.241,0,0,0,-3.979,31.072,44.807,0,-0.01,0.01,1.27,1.79,9.23,1.67,5.21,19.24,11,-7.68,-27.24,9,0.004,-0.008,121.875,0.006,-0.011,-0.687,0.69,17.87,2.77,7.02,0,0,121.87,2,0.0113,0,0.0121,0,0,2,0,3,3,3,3,0.0486,0,0,0,0,0,49,12,0,2,-1,-1,-1
LOGGING,410748,2026-04-06T17:58:01,1775498281,993.76,33.53,163.56,1.27,1.794,9.237,-0.02,-4.1,0,255,0,0,0,0,0,0,0,0,0,0,0,0,0,0,0,0,0,0,0,0,0,255,993.76,33.53,163.56,0,0,0,0,0,0,0,0,0,0,0,0,0,0,0,0,0,1.266,1.801,9.23,0,0,0,-5.188,28.688,43.875,0,0.004,-0.004,1.266,1.797,9.234,1.27,1.794,9.237,0,0,0,-3.979,31.072,44.807,0,0,0.01,1.27,1.79,9.23,1.71,5.31,19.61,11,-7.68,-27.26,9,0.004,-0.009,121.842,0.006,-0.012,-0.765,0.76,18.15,2.78,7.06,0,0,121.84,2,0.0097,0,0.0104,0,0,2,0,3,3,3,3,0.0496,0,0,0,0,0,41,12,0,43,-1,-1,-1
LOGGING,410793,2026-04-06T17:58:01,1775498281,993.76,33.54,163.53,1.27,1.795,9.24,-0.02,-4.12,-0.01,255,0,0,0,0,0,0,0,0,0,0,0,0,0,0,0,0,0,0,0,0,0,255,993.76,33.53,163.56,0,0,0,0,0,0,0,0,0,0,0,0,0,0,0,0,0,1.266,1.801,9.266,0,0,0,-5.188,28.688,43.875,-0.039,0.043,-0.004,1.266,1.797,9.234,1.27,1.795,9.24,0,0,0,-3.979,31.072,44.807,0,0,0.01,1.27,1.79,9.23,1.76,5.41,19.98,11,-7.68,-27.26,9,0.004,-0.009,121.747,0.005,-0.012,-0.899,0.9,18.41,2.77,7.09,0,0,121.75,2,0.0073,0,0.0073,0,0,2,0,3,3,3,3,0.0496,0,0,0,0,0,45,12,0,1,-1,-1,-1
LOGGING,410827,2026-04-06T17:58:01,1775498281,993.76,33.54,163.53,1.264,1.801,9.239,-0.02,-4.12,-0.01,255,0,0,0,0,0,0,0,0,0,0,0,0,0,0,0,0,0,0,0,0,0,255,993.76,33.53,163.56,0,0,0,0,0,0,0,0,0,0,0,0,0,0,0,0,0,1.227,1.84,9.23,0,0,0,-5.188,28.688,43.875,-0.039,0.043,-0.004,1.266,1.797,9.234,1.264,1.801,9.239,0,0,0,-3.979,31.072,44.807,0,0,0.01,1.27,1.79,9.23,1.76,5.41,19.98,11,-7.68,-27.26,9,0.004,-0.01,121.712,0.005,-0.012,-0.965,0.96,18.64,2.78,7.13,0,0,121.71,1,0.0073,0,0.0073,0,0,2,0,3,3,3,3,0.0496,0,0,0,0,0,34,12,0,35,-1,-1,-1
LOGGING,410869,2026-04-06T17:58:01,1775498281,993.76,33.54,163.53,1.267,1.801,9.239,-0.02,-4.14,-0.01,255,0,0,0,0,0,0,0,0,0,0,0,0,0,0,0,0,0,0,0,0,0,255,993.76,33.53,163.55,0,0,0,0,0,0,0,0,0,0,0,0,0,0,0,0,0,1.266,1.801,9.23,0,0,0,-5.188,28.688,43.875,0,0.004,-0.004,1.266,1.797,9.234,1.267,1.801,9.239,0,0,0,-3.979,31.072,44.807,0,0,0,1.27,1.79,9.23,1.79,5.47,20.22,11,-7.68,-27.29,9,0.004,-0.01,121.628,0.005,-0.012,-1.08,1.08,18.9,2.77,7.16,0,0,121.63,6,0.0077,0,0.0087,0,0,2,0,3,3,3,3,0.0503,0,0,0,0,0,42,12,0,19,-1,-1,-1
LOGGING,410912,2026-04-06T17:58:01,1775498281,993.76,33.54,163.55,1.268,1.801,9.236,-0.02,-4.16,-0.01,255,0,0,0,0,0,0,0,0,0,0,0,0,0,0,0,0,0,0,0,0,0,255,993.76,33.53,163.55,0,0,0,0,0,0,0,0,0,0,0,0,0,0,0,0,0,1.266,1.801,9.23,0,0,0,-5.188,28.688,43.875,-0.039,-0.035,-0.004,1.266,1.797,9.234,1.268,1.801,9.236,0,0,0,-3.979,31.072,44.807,-0.01,0,0,1.27,1.79,9.23,1.79,5.48,20.26,11,-7.68,-27.29,9,0.005,-0.011,121.562,0.005,-0.012,-1.172,1.17,19.15,2.75,7.18,0,0,121.56,1,0.0096,0,0.0096,0,0,2,0,3,3,3,3,0.0503,0,0,0,0,0,43,12,0,1,-1,-1,-1
LOGGING,410948,2026-04-06T17:58:02,1775498282,993.76,33.54,163.55,1.267,1.801,9.239,-0.02,-4.2,-0.01,255,0,0,0,0,0,0,0,0,0,0,0,0,0,0,0,0,0,0,0,0,0,255,993.76,33.53,163.55,0,0,0,0,0,0,0,0,0,0,0,0,0,0,0,0,0,1.266,1.801,9.266,0,0,0,-5.188,28.688,43.875,-0.039,-0.035,-0.004,1.266,1.797,9.234,1.267,1.801,9.239,0,0,0,-3.979,31.072,44.807,-0.01,0,0,1.27,1.79,9.23,1.83,5.57,20.6,11,-7.68,-27.29,9,0.005,-0.011,121.515,0.005,-0.012,-1.243,1.24,19.4,2.77,7.22,0,0,121.51,1,0.0096,0,0.0096,0,0,2,0,3,3,3,3,0.0503,0,0,0,0,0,36,12,0,37,-1,-1,-1
LOGGING,410983,2026-04-06T17:58:02,1775498282,993.76,33.54,163.55,1.267,1.803,9.238,-0.02,-4.21,-0.01,255,0,0,0,0,0,0,0,0,0,0,0,0,0,0,0,0,0,0,0,0,0,255,993.76,33.54,163.55,0,0,0,0,0,0,0,0,0,0,0,0,0,0,0,0,0,1.266,1.84,9.227,0,0,0,-3.625,27.188,44.312,-0.039,-0.035,-0.004,1.266,1.797,9.234,1.267,1.803,9.238,0,0,0,-3.96,30.861,44.78,-0.01,0,0,1.27,1.79,9.23,1.86,5.63,20.82,11,-7.68,-27.32,9,0.005,-0.012,121.468,0.004,-0.012,-1.307,1.31,19.6,2.75,7.24,0,0,121.47,2,0.0096,0,0.0096,0,0,2,0,3,3,3,3,0.0518,0,0,0,0,0,35,12,0,1,-1,-1,-1
LOGGING,411052,2026-04-06T17:58:02,1775498282,993.76,33.54,163.56,1.271,1.81,9.241,-0.02,-4.25,-0.01,255,0,0,0,0,0,0,0,0,0,0,0,0,0,0,0,0,0,0,0,0,0,255,993.76,33.54,163.55,0,0,0,0,0,0,0,0,0,0,0,0,0,0,0,0,0,1.301,1.84,9.27,0,0,0,-3.625,27.188,44.312,-0.039,-0.035,-0.004,1.266,1.797,9.234,1.271,1.81,9.241,0,0,0,-3.96,30.861,44.78,-0.01,0,0,1.27,1.79,9.23,1.94,5.78,21.41,11,-7.68,-27.32,9,0.005,-0.012,121.379,0.004,-0.012,-1.427,1.43,20.06,2.75,7.3,0,0,121.38,2,0.0096,0,0.0096,0,0,2,0,3,3,3,3,0.0518,0,0,0,0,0,69,13,0,2,-1,-1,-1
LOGGING,411094,2026-04-06T17:58:02,1775498282,993.76,33.54,163.56,1.271,1.808,9.235,-0.02,-4.29,-0.01,255,0,0,0,0,0,0,0,0,0,0,0,0,0,0,0,0,0,0,0,0,0,255,993.76,33.54,163.55,0,0,0,0,0,0,0,0,0,0,0,0,0,0,0,0,0,1.266,1.801,9.195,0,0,0,-3.625,27.188,44.312,0.027,0.004,-0.004,1.273,1.797,9.234,1.271,1.808,9.235,0,0,0,-3.96,30.861,44.78,0,0,0,1.27,1.79,9.23,1.98,5.86,21.73,11,-7.68,-27.32,9,0.005,-0.013,121.32,0.004,-0.012,-1.499,1.5,20.32,2.76,7.34,0,0,121.32,2,0.0051,0,0.0051,0,0,2,0,3,3,3,3,0.0518,0,0,0,0,0,42,13,0,44,-1,-1,-1
LOGGING,411141,2026-04-06T17:58:02,1775498282,993.76,33.54,163.56,1.272,1.807,9.241,-0.02,-4.31,-0.01,255,0,0,0,0,0,0,0,0,0,0,0,0,0,0,0,0,0,0,0,0,0,255,993.76,33.54,163.55,0,0,0,0,0,0,0,0,0,0,0,0,0,0,0,0,0,1.227,1.801,9.27,0,0,0,-3.625,27.188,44.312,-0.047,0.004,0.035,1.273,1.797,9.234,1.272,1.807,9.241,0,0,0,-3.96,30.861,44.78,-0.01,0,0,1.27,1.79,9.23,2.02,5.96,22.11,11,-7.68,-27.45,9,0.006,-0.014,121.272,0.003,-0.012,-1.559,1.56,20.64,2.75,7.38,0,0,121.27,2,0.0082,0,0.0104,0,0,2,0,3,3,3,3,0.0491,0,0,0,0,0,47,13,0,1,-1,-1,-1
LOGGING,411187,2026-04-06T17:58:02,1775498282,993.76,33.54,163.56,1.268,1.81,9.241,-0.02,-4.34,-0.01,255,0,0,0,0,0,0,0,0,0,0,0,0,0,0,0,0,0,0,0,0,0,255,993.76,33.54,163.55,0,0,0,0,0,0,0,0,0,0,0,0,0,0,0,0,0,1.266,1.801,9.23,0,0,0,-3.625,27.188,44.312,-0.008,-0.035,0.035,1.273,1.797,9.234,1.268,1.81,9.241,0,0,0,-3.96,30.861,44.78,-0.01,0,0,1.27,1.79,9.23,2.07,6.05,22.48,11,-7.68,-27.45,9,0.006,-0.014,121.201,0.003,-0.011,-1.638,1.64,20.93,2.76,7.43,0,0,121.2,3,0.0116,0,0.0122,0,0,2,0,3,3,3,3,0.0491,0,0,0,0,0,46,13,0,47,-1,-1,-1
LOGGING,411234,2026-04-06T17:58:02,1775498282,993.76,33.54,163.56,1.268,1.806,9.24,-0.02,-4.36,-0.01,255,0,0,0,0,0,0,0,0,0,0,0,0,0,0,0,0,0,0,0,0,0,255,993.76,33.54,163.55,0,0,0,0,0,0,0,0,0,0,0,0,0,0,0,0,0,1.266,1.762,9.199,0,0,0,-4.438,28.312,45.188,-0.008,-0.035,0.035,1.273,1.797,9.234,1.268,1.806,9.24,0,0,0,-3.972,30.794,44.79,-0.01,0,0.01,1.27,1.79,9.23,2.12,6.15,22.86,11,-7.68,-27.52,9,0.006,-0.015,121.165,0.003,-0.011,-1.678,1.68,21.25,2.75,7.46,0,0,121.16,2,0.0113,0,0.0113,0,0,2,0,3,3,3,3,0.0486,0,0,0,0,0,47,13,0,1,-1,-1,-1
LOGGING,411268,2026-04-06T17:58:02,1775498282,993.76,33.54,163.56,1.272,1.798,9.233,-0.02,-4.35,-0.01,255,0,0,0,0,0,0,0,0,0,0,0,0,0,0,0,0,0,0,0,0,0,255,993.76,33.54,163.55,0,0,0,0,0,0,0,0,0,0,0,0,0,0,0,0,0,1.301,1.762,9.199,0,0,0,-4.438,28.312,45.188,-0.008,-0.035,0.035,1.273,1.797,9.234,1.272,1.798,9.233,0,0,0,-3.985,30.728,44.801,-0.01,0,0.01,1.27,1.79,9.23,2.12,6.15,22.89,11,-7.68,-27.52,9,0.006,-0.015,121.105,0.002,-0.011,-1.74,1.74,21.48,2.76,7.5,0,0,121.1,1,0.0113,0,0.0113,0,0,2,0,3,3,3,3,0.0486,0,0,0,0,0,34,13,0,35,-1,-1,-1
LOGGING,411298,2026-04-06T17:58:02,1775498282,993.76,33.54,163.56,1.271,1.794,9.238,-0.02,-4.35,-0.01,255,0,0,0,0,0,0,0,0,0,0,0,0,0,0,0,0,0,0,0,0,0,255,993.76,33.54,163.56,0,0,0,0,0,0,0,0,0,0,0,0,0,0,0,0,0,1.266,1.762,9.27,0,0,0,-4.125,31.125,45.625,0.027,0.004,-0.039,1.273,1.797,9.234,1.271,1.794,9.238,0,0,0,-3.987,30.734,44.815,0,0,0,1.27,1.8,9.23,2.15,6.2,23.06,11,-7.68,-27.54,9,0.006,-0.015,121.112,0.002,-0.011,-1.732,1.73,21.66,2.75,7.52,0,0,121.11,3,0.0054,0,0.0054,0,0,2,0,3,3,3,3,0.0491,0,0,0,0,0,30,13,0,1,-1,-1,-1
LOGGING,411344,2026-04-06T17:58:02,1775498282,993.76,33.54,163.56,1.275,1.795,9.232,-0.02,-4.38,-0.01,255,0,0,0,0,0,0,0,0,0,0,0,0,0,0,0,0,0,0,0,0,0,255,993.76,33.54,163.56,0,0,0,0,0,0,0,0,0,0,0,0,0,0,0,0,0,1.301,1.801,9.195,0,0,0,-4.125,31.125,45.625,-0.008,0.004,-0.039,1.273,1.797,9.234,1.275,1.795,9.232,0,0,0,-3.992,30.748,44.843,0,0,0,1.27,1.8,9.23,2.19,6.29,23.45,11,-7.68,-27.54,9,0.006,-0.016,121.023,0.002,-0.011,-1.819,1.82,21.99,2.76,7.57,0,0,121.02,3,0.006,0,0.0069,0,0,2,0,3,3,3,3,0.0491,0,0,0,0,0,46,13,0,47,-1,-1,-1
LOGGING,411388,2026-04-06T17:58:02,1775498282,993.76,33.54,163.55,1.276,1.799,9.228,-0.02,-4.42,-0.01,255,0,0,0,0,0,0,0,0,0,0,0,0,0,0,0,0,0,0,0,0,0,255,993.76,33.54,163.55,0,0,0,0,0,0,0,0,0,0,0,0,0,0,0,0,0,1.266,1.801,9.23,0,0,0,-4.125,31.125,45.625,-0.008,0.004,0.074,1.273,1.797,9.234,1.276,1.799,9.228,0,0,0,-3.992,30.748,44.843,-0.01,0,0.01,1.27,1.8,9.23,2.2,6.3,23.47,11,-7.68,-27.54,9,0.006,-0.016,121.017,0.002,-0.011,-1.82,1.82,22.26,2.75,7.6,0,0,121.02,3,0.0084,0,0.0084,0,0,2,0,3,3,3,3,0.0491,0,0,0,0,0,44,13,0,1,-1,-1,-1
LOGGING,411430,2026-04-06T17:58:02,1775498282,993.76,33.54,163.55,1.274,1.798,9.226,-0.02,-4.45,-0.01,255,0,0,0,0,0,0,0,0,0,0,0,0,0,0,0,0,0,0,0,0,0,255,993.76,33.54,163.55,0,0,0,0,0,0,0,0,0,0,0,0,0,0,0,0,0,1.266,1.762,9.199,0,0,0,-4.125,31.125,45.625,0.027,0.004,0.035,1.273,1.797,9.234,1.274,1.798,9.226,0,0,0,-3.992,30.748,44.843,0,0,0.01,1.27,1.8,9.23,2.2,6.3,23.48,11,-7.68,-27.54,9,0.006,-0.017,120.93,0.002,-0.011,-1.901,1.9,22.58,2.76,7.64,0,0,120.93,3,0.0093,0,0.0097,0,0,2,0,3,3,3,3,0.0491,0,0,0,0,0,42,13,0,43,-1,-1,-1
LOGGING,411465,2026-04-06T17:58:02,1775498282,993.76,33.54,163.55,1.273,1.797,9.229,-0.02,-4.45,-0.01,255,0,0,0,0,0,0,0,0,0,0,0,0,0,0,0,0,0,0,0,0,0,255,993.76,33.54,163.55,0,0,0,0,0,0,0,0,0,0,0,0,0,0,0,0,0,1.266,1.801,9.266,0,0,0,-4.125,31.125,45.625,0.027,0.004,0.035,1.273,1.797,9.234,1.273,1.797,9.229,0,0,0,-3.992,30.748,44.843,0,0,0.01,1.27,1.8,9.23,2.2,6.3,23.48,11,-7.68,-27.54,9,0.006,-0.017,120.945,0.002,-0.011,-1.878,1.88,22.81,2.75,7.67,0,0,120.94,1,0.0097,0,0.0097,0,0,2,0,3,3,3,3,0.0491,0,0,0,0,0,35,13,0,1,-1,-1,-1
LOGGING,411504,2026-04-06T17:58:02,1775498282,993.76,33.54,163.55,1.269,1.798,9.224,-0.02,-4.44,-0.01,255,0,0,0,0,0,0,0,0,0,0,0,0,0,0,0,0,0,0,0,0,0,255,993.76,33.54,163.55,0,0,0,0,0,0,0,0,0,0,0,0,0,0,0,0,0,1.227,1.801,9.156,0,0,0,-3.688,28.688,46.062,0.027,0.004,-0.039,1.273,1.797,9.234,1.269,1.798,9.224,0,0,0,-3.981,30.672,44.887,0,0,0.01,1.27,1.8,9.23,2.23,6.36,23.71,11,-7.69,-27.67,9,0.006,-0.018,120.872,0.002,-0.011,-1.942,1.94,23.07,2.76,7.71,0,0,120.87,4,0.0078,0,0.0097,0,0,2,0,3,3,3,3,0.0483,0,0,0,0,0,39,13,0,40,-1,-1,-1
LOGGING,411586,2026-04-06T17:58:02,1775498282,993.76,33.54,163.55,1.267,1.799,9.228,-0.02,-4.5,-0.01,255,0,0,0,0,0,0,0,0,0,0,0,0,0,0,0,0,0,0,0,0,0,255,993.76,33.54,163.55,0,0,0,0,0,0,0,0,0,0,0,0,0,0,0,0,0,1.266,1.801,9.266,0,0,0,-3.75,32.188,45.25,-0.008,-0.035,-0.078,1.273,1.797,9.234,1.267,1.799,9.228,0,0,0,-3.964,30.735,44.922,0,0,-0.01,1.27,1.8,9.23,2.32,6.52,24.38,11,-7.69,-27.67,9,0.007,-0.018,120.817,0.002,-0.012,-1.972,1.97,23.62,2.75,7.78,0,0,120.82,3,0.0082,0,0.0082,0,0,2,0,3,3,3,3,0.0483,0,0,0,0,0,82,14,0,2,-1,-1,-1
LOGGING,411621,2026-04-06T17:58:02,1775498282,993.76,33.54,163.55,1.271,1.799,9.226,-0.02,-4.5,-0.01,255,0,0,0,0,0,0,0,0,0,0,0,0,0,0,0,0,0,0,0,0,0,255,993.76,33.54,163.55,0,0,0,0,0,0,0,0,0,0,0,0,0,0,0,0,0,1.301,1.801,9.195,0,0,0,-3.75,32.188,45.25,-0.008,0.004,-0.039,1.273,1.797,9.234,1.271,1.799,9.226,0,0,0,-3.964,30.735,44.922,0,0,-0.01,1.27,1.8,9.23,2.32,6.52,24.39,11,-7.69,-27.67,9,0.007,-0.019,120.738,0.002,-0.012,-2.037,2.04,23.9,2.77,7.82,0,0,120.74,2,0.0127,0,0.0127,0,0,2,0,3,3,3,3,0.0483,0,0,0,0,0,35,14,0,37,-1,-1,-1
LOGGING,411665,2026-04-06T17:58:02,1775498282,993.76,33.54,163.55,1.272,1.798,9.226,-0.02,-4.5,-0.01,255,0,0,0,0,0,0,0,0,0,0,0,0,0,0,0,0,0,0,0,0,0,255,993.76,33.54,163.55,0,0,0,0,0,0,0,0,0,0,0,0,0,0,0,0,0,1.301,1.762,9.227,0,0,0,-3.75,32.188,45.25,-0.008,-0.035,-0.004,1.273,1.797,9.234,1.272,1.798,9.226,0,0,0,-3.964,30.735,44.922,0,-0.01,-0.02,1.27,1.8,9.23,2.32,6.52,24.39,11,-7.69,-27.67,9,0.007,-0.019,120.762,0.002,-0.012,-1.996,2,24.2,2.75,7.86,0,0,120.76,3,0.0183,0,0.0186,0,0,2,0,3,3,3,3,0.0483,0,0,0,0,0,44,14,0,1,-1,-1,-1
LOGGING,411713,2026-04-06T17:58:02,1775498282,993.76,33.54,163.55,1.272,1.8,9.225,-0.02,-4.53,-0.01,255,0,0,0,0,0,0,0,0,0,0,0,0,0,0,0,0,0,0,0,0,0,255,993.76,33.54,163.55,0,0,0,0,0,0,0,0,0,0,0,0,0,0,0,0,0,1.266,1.801,9.266,0,0,0,-3.75,32.188,45.25,-0.008,0.004,0.035,1.273,1.797,9.234,1.272,1.8,9.225,0,0,0,-3.964,30.735,44.922,0,-0.01,-0.02,1.27,1.8,9.23,2.36,6.6,24.73,11,-7.69,-27.79,9,0.007,-0.02,120.668,0.001,-0.012,-2.072,2.07,24.53,2.77,7.91,0,0,120.67,4,0.0174,0,0.0187,0,0,2,0,3,3,3,3,0.0479,0,0,0,0,0,48,14,0,49,-1,-1,-1
LOGGING,411762,2026-04-06T17:58:02,1775498282,993.76,33.54,163.53,1.27,1.798,9.232,-0.02,-4.55,-0.01,255,0,0,0,0,0,0,0,0,0,0,0,0,0,0,0,0,0,0,0,0,0,255,993.76,33.54,163.55,0,0,0,0,0,0,0,0,0,0,0,0,0,0,0,0,0,1.266,1.762,9.227,0,0,0,-4.438,30.062,44.812,-0.008,-0.027,0.004,1.273,1.797,9.234,1.27,1.798,9.232,0,0,0,-3.984,30.597,44.909,0,0,-0.01,1.27,1.8,9.23,2.42,6.71,25.15,11.01,-7.69,-27.82,9,0.007,-0.021,120.685,0.001,-0.013,-2.032,2.03,24.89,2.75,7.95,0,0,120.69,2,0.0128,0,0.013,0,0,2,0,3,3,3,3,0.0479,0,0,0,0,0,49,14,0,1,-1,-1,-1
LOGGING,411812,2026-04-06T17:58:02,1775498282,993.76,33.54,163.53,1.273,1.806,9.233,-0.02,-4.55,-0.01,255,0,0,0,0,0,0,0,0,0,0,0,0,0,0,0,0,0,0,0,0,0,255,993.76,33.54,163.54,0,0,0,0,0,0,0,0,0,0,0,0,0,0,0,0,0,1.266,1.801,9.195,0,0,0,-4.062,28.312,44.312,-0.008,-0.027,0.004,1.273,1.789,9.227,1.273,1.806,9.233,0,0,0,-4.001,30.444,44.87,0,0,0,1.27,1.8,9.23,2.47,6.79,25.52,11,-7.69,-27.84,9,0.007,-0.021,120.7,0.001,-0.013,-1.996,2,25.23,2.74,7.99,0,0,120.7,3,0.0052,0,0.0071,0,0,2,0,3,3,3,3,0.0481,0,0,0,0,0,50,15,0,1,-1,-1,-1
LOGGING,411855,2026-04-06T17:58:02,1775498282,993.76,33.54,163.53,1.274,1.802,9.233,-0.02,-4.55,-0.01,255,0,0,0,0,0,0,0,0,0,0,0,0,0,0,0,0,0,0,0,0,0,255,993.76,33.54,163.54,0,0,0,0,0,0,0,0,0,0,0,0,0,0,0,0,0,1.301,1.762,9.199,0,0,0,-4.375,27.188,44.312,0.02,-0.035,-0.023,1.273,1.789,9.227,1.274,1.802,9.233,0,0,0,-4.008,30.381,44.859,0,0,-0.01,1.27,1.8,9.23,2.47,6.79,25.52,11,-7.69,-27.84,9,0.007,-0.022,120.604,0.002,-0.013,-2.067,2.07,25.57,2.75,8.04,0,0,120.6,3,0.0123,0,0.0136,0,0,2,0,3,3,3,3,0.0481,0,0,0,0,0,43,15,0,44,-1,-1,-1
LOGGING,411904,2026-04-06T17:58:02,1775498282,993.76,33.54,163.53,1.273,1.8,9.231,-0.02,-4.57,-0.01,255,0,0,0,0,0,0,0,0,0,0,0,0,0,0,0,0,0,0,0,0,0,255,993.76,33.54,163.54,0,0,0,0,0,0,0,0,0,0,0,0,0,0,0,0,0,1.266,1.801,9.23,0,0,0,-4.375,27.188,44.312,-0.016,0.004,0.012,1.273,1.789,9.227,1.273,1.8,9.231,0,0,0,-4.023,30.256,44.838,0.01,0,-0.01,1.27,1.8,9.23,2.51,6.87,25.83,11.01,-7.69,-27.87,9,0.007,-0.022,120.633,0.002,-0.013,-2.018,2.02,25.9,2.74,8.08,0,0,120.63,2,0.0121,0,0.0136,0,0,2,0,3,3,3,3,0.0488,0,0,0,0,0,49,15,0,1,-1,-1,-1
LOGGING,411950,2026-04-06T17:58:03,1775498283,993.76,33.54,163.53,1.271,1.8,9.231,-0.02,-4.6,-0.01,255,0,0,0,0,0,0,0,0,0,0,0,0,0,0,0,0,0,0,0,0,0,255,993.76,33.54,163.54,0,0,0,0,0,0,0,0,0,0,0,0,0,0,0,0,0,1.266,1.801,9.305,0,0,0,-4.375,27.188,44.312,-0.016,0.004,0.051,1.281,1.797,9.219,1.271,1.8,9.231,0,0,0,-4.023,30.256,44.838,0,0,-0.01,1.27,1.8,9.23,2.56,6.95,26.19,11.01,-7.7,-27.93,9,0.007,-0.023,120.53,0.002,-0.013,-2.091,2.09,26.26,2.76,8.14,0,0,120.53,4,0.0092,0,0.0103,0,0,2,0,3,3,3,3,0.0466,0,0,0,0,0,46,15,0,47,-1,-1,-1
LOGGING,411996,2026-04-06T17:58:03,1775498283,993.76,33.54,163.51,1.27,1.801,9.237,-0.02,-4.63,-0.01,255,0,0,0,0,0,0,0,0,0,0,0,0,0,0,0,0,0,0,0,0,0,255,993.76,33.54,163.54,0,0,0,0,0,0,0,0,0,0,0,0,0,0,0,0,0,1.266,1.801,9.23,0.004,0.004,0,-3.688,27.938,44.312,0.012,0.012,-0.07,1.281,1.797,9.219,1.27,1.801,9.237,-0.001,0,0,-4.002,30.117,44.806,0,0,-0.01,1.27,1.8,9.23,2.61,7.04,26.55,11.01,-7.7,-27.93,9,0.007,-0.024,120.571,0.002,-0.014,-2.029,2.03,26.57,2.74,8.17,0,0,120.57,2,0.0115,0.0007,0.0115,0.0008,0,2,0,3,3,3,3,0.0466,0,0,0,0,0,46,15,0,1,-1,-1,-1
LOGGING,412031,2026-04-06T17:58:03,1775498283,993.76,33.54,163.51,1.269,1.801,9.232,-0.02,-4.63,-0.01,255,0,0,0,0,0,0,0,0,0,0,0,0,0,0,0,0,0,0,0,0,0,255,993.76,33.54,163.54,0,0,0,0,0,0,0,0,0,0,0,0,0,0,0,0,0,1.266,1.801,9.195,0.012,0,-0.004,-3.688,27.938,44.312,0.012,0.012,-0.07,1.281,1.797,9.227,1.269,1.801,9.232,0,0,0,-4.002,30.117,44.806,0,0,-0.01,1.27,1.8,9.23,2.61,7.04,26.55,11.01,-7.7,-27.93,9,0.007,-0.024,120.489,0.003,-0.014,-2.086,2.09,26.87,2.75,8.22,0,0,120.49,2,0.0115,0.0007,0.0115,0.0008,0,2,0,3,3,3,3,0.0466,0,0,0,0,0,35,15,0,36,-1,-1,-1
LOGGING,412095,2026-04-06T17:58:03,1775498283,993.76,33.54,163.51,1.275,1.801,9.239,-0.02,-4.67,0,255,0,0,0,0,0,0,0,0,0,0,0,0,0,0,0,0,0,0,0,0,0,255,993.76,33.54,163.53,0,0,0,0,0,0,0,0,0,0,0,0,0,0,0,0,0,1.301,1.801,9.195,-0.004,0,-0.002,-3.688,27.938,44.312,0.012,0.012,0.082,1.281,1.797,9.227,1.275,1.801,9.239,0.001,0,-0.001,-4.002,30.117,44.806,0,0,-0.01,1.28,1.8,9.23,2.68,7.15,27.01,11,-7.7,-27.98,9,0.008,-0.025,120.507,0.003,-0.014,-2.037,2.04,27.3,2.74,8.27,0,0,120.51,2,0.0088,0.0016,0.0115,0.0017,0,2,0,3,3,3,3,0.0469,0,0,0,0,0,64,16,0,2,-1,-1,-1
LOGGING,412147,2026-04-06T17:58:03,1775498283,993.76,33.54,163.51,1.276,1.798,9.229,-0.02,-4.7,0,255,0,0,0,0,0,0,0,0,0,0,0,0,0,0,0,0,0,0,0,0,0,255,993.76,33.54,163.53,0,0,0,0,0,0,0,0,0,0,0,0,0,0,0,0,0,1.266,1.801,9.305,-0.004,0.002,0,-3.812,33.562,43.938,0.02,0.004,-0.004,1.281,1.797,9.234,1.276,1.798,9.229,0,0.001,-0.001,-3.99,30.334,44.751,0,0,-0.01,1.28,1.8,9.23,2.69,7.17,27.07,11,-7.7,-28.01,9,0.008,-0.026,120.521,0.003,-0.014,-1.992,1.99,27.72,2.74,8.33,0,0,120.52,4,0.0115,0.0018,0.0132,0.0018,0,2,0,3,3,3,3,0.0466,0,0,0,0,0,52,16,0,2,-1,-1,-1
LOGGING,412188,2026-04-06T17:58:03,1775498283,993.76,33.54,163.51,1.274,1.795,9.228,-0.01,-4.73,0,255,0,0,0,0,0,0,0,0,0,0,0,0,0,0,0,0,0,0,0,0,0,255,993.76,33.54,163.53,0,0,0,0,0,0,0,0,0,0,0,0,0,0,0,0,0,1.266,1.762,9.156,0,0,-0.004,-3.812,33.562,43.938,-0.016,0.004,-0.07,1.281,1.797,9.227,1.274,1.795,9.228,0,0.001,-0.001,-3.99,30.334,44.751,0,0,-0.01,1.28,1.8,9.23,2.69,7.17,27.1,11,-7.7,-28.01,9,0.008,-0.026,120.442,0.003,-0.015,-2.045,2.05,28.02,2.75,8.37,0,0,120.44,2,0.0152,0.0017,0.0173,0.0017,0,2,0,3,3,3,3,0.0466,0,0,0,0,0,41,16,0,43,-1,-1,-1
LOGGING,412235,2026-04-06T17:58:03,1775498283,993.77,33.54,163.5,1.275,1.792,9.214,-0.01,-4.76,0,255,0,0,0,0,0,0,0,0,0,0,0,0,0,0,0,0,0,0,0,0,0,255,993.76,33.54,163.52,0,0,0,0,0,0,0,0,0,0,0,0,0,0,0,0,0,1.301,1.801,9.266,0.004,0.002,0,-4.812,27.938,45.188,-0.023,0.004,-0.109,1.281,1.797,9.227,1.275,1.792,9.214,0.001,0,-0.001,-4.007,30.287,44.76,0,0,-0.02,1.28,1.8,9.23,2.75,7.27,27.48,11,-7.71,-28.05,9,0.008,-0.027,120.474,0.004,-0.015,-1.987,1.99,28.39,2.73,8.41,0,0,120.47,3,0.0228,0.0017,0.025,0.0017,0,2,0,3,3,3,3,0.0466,0,0,0,0,0,47,16,0,2,-1,-1,-1
LOGGING,412287,2026-04-06T17:58:03,1775498283,993.77,33.54,163.5,1.278,1.791,9.222,-0.01,-4.79,0,255,0,0,0,0,0,0,0,0,0,0,0,0,0,0,0,0,0,0,0,0,0,255,993.76,33.54,163.52,0,0,0,0,0,0,0,0,0,0,0,0,0,0,0,0,0,1.266,1.801,9.266,0,0.004,0,-4.938,34,45.812,-0.023,0.004,0.043,1.281,1.797,9.227,1.278,1.791,9.222,0.001,0,-0.001,-4.078,30.354,44.822,0,0,-0.02,1.28,1.8,9.23,2.8,7.35,27.86,11,-7.71,-28.06,9,0.008,-0.028,120.495,0.004,-0.015,-1.941,1.94,28.77,2.73,8.46,0,0,120.5,4,0.023,0.0015,0.0263,0.0016,0,2,0,3,3,3,3,0.0471,0,0,0,0,0,52,16,0,1,-1,-1,-1
LOGGING,412325,2026-04-06T17:58:03,1775498283,993.77,33.54,163.5,1.276,1.792,9.238,-0.01,-4.81,0,255,0,0,0,0,0,0,0,0,0,0,0,0,0,0,0,0,0,0,0,0,0,255,993.76,33.54,163.52,0,0,0,0,0,0,0,0,0,0,0,0,0,0,0,0,0,1.266,1.801,9.348,-0.002,-0.002,0.002,-4.938,34,45.812,-0.023,0.004,0.043,1.281,1.797,9.234,1.276,1.792,9.238,0,0.001,-0.001,-4.091,30.408,44.837,0,0,-0.02,1.28,1.8,9.23,2.85,7.43,28.2,11,-7.71,-28.06,9,0.008,-0.028,120.413,0.004,-0.015,-1.994,1.99,29.09,2.74,8.51,0,0,120.41,2,0.0192,0.0013,0.0192,0.0014,0,2,0,3,3,3,3,0.0471,0,0,0,0,0,38,16,0,39,-1,-1,-1
LOGGING,412353,2026-04-06T17:58:03,1775498283,993.77,33.54,163.5,1.275,1.793,9.244,-0.01,-4.84,0,255,0,0,0,0,0,0,0,0,0,0,0,0,0,0,0,0,0,0,0,0,0,255,993.76,33.54,163.51,0,0,0,0,0,0,0,0,0,0,0,0,0,0,0,0,0,1.266,1.801,9.348,0,0,-0.002,-4.938,34,45.812,-0.016,0.004,0.035,1.281,1.797,9.234,1.275,1.793,9.244,0.001,0,-0.001,-4.091,30.408,44.837,0,0,-0.01,1.28,1.8,9.23,2.85,7.44,28.22,11,-7.71,-28.06,9,0.008,-0.029,120.477,0.004,-0.016,-1.92,1.92,29.3,2.72,8.53,0,0,120.48,2,0.0134,0.0013,0.0134,0.0013,0,2,0,3,3,3,3,0.0471,0,0,0,0,0,28,16,0,1,-1,-1,-1
LOGGING,412396,2026-04-06T17:58:03,1775498283,993.77,33.54,163.5,1.274,1.794,9.242,-0.01,-4.87,0,255,0,0,0,0,0,0,0,0,0,0,0,0,0,0,0,0,0,0,0,0,0,255,993.76,33.54,163.51,0,0,0,0,0,0,0,0,0,0,0,0,0,0,0,0,0,1.266,1.801,9.23,0.002,-0.004,0.002,-3.375,27.875,43.938,-0.023,0.004,-0.004,1.281,1.797,9.234,1.274,1.794,9.242,0.001,0,-0.001,-4.048,30.258,44.783,0,0,-0.01,1.28,1.8,9.23,2.9,7.51,28.53,11,-7.71,-28.06,9,0.009,-0.03,120.398,0.004,-0.016,-1.969,1.97,29.62,2.73,8.58,0,0,120.4,2,0.0129,0.0014,0.0129,0.0014,0,2,0,3,3,3,3,0.0471,0,0,0,0,0,43,16,0,44,-1,-1,-1
LOGGING,412432,2026-04-06T17:58:03,1775498283,993.76,33.54,163.51,1.278,1.794,9.25,-0.01,-4.9,0.01,255,0,0,0,0,0,0,0,0,0,0,0,0,0,0,0,0,0,0,0,0,0,255,993.76,33.54,163.51,0,0,0,0,0,0,0,0,0,0,0,0,0,0,0,0,0,1.301,1.801,9.305,-0.002,0.002,0.004,-3.375,27.875,43.938,-0.023,0.004,-0.031,1.281,1.797,9.234,1.278,1.794,9.25,0.001,0,0,-4.048,30.258,44.783,-0.01,0,-0.01,1.28,1.8,9.23,2.94,7.58,28.84,11,-7.71,-28.06,9,0.009,-0.03,120.447,0.004,-0.016,-1.903,1.9,29.91,2.72,8.61,0,0,120.45,1,0.0162,0.0009,0.0162,0.0009,0,2,0,3,3,3,3,0.0471,0,0,0,0,0,36,16,0,1,-1,-1,-1
LOGGING,412463,2026-04-06T17:58:03,1775498283,993.76,33.54,163.51,1.28,1.795,9.247,-0.01,-4.91,0.01,255,0,0,0,0,0,0,0,0,0,0,0,0,0,0,0,0,0,0,0,0,0,255,993.76,33.54,163.51,0,0,0,0,0,0,0,0,0,0,0,0,0,0,0,0,0,1.301,1.801,9.23,0,-0.002,0.002,-3.375,27.875,43.938,0.012,0.004,-0.004,1.281,1.797,9.234,1.28,1.795,9.247,0,0,0,-4.048,30.258,44.783,-0.01,0,-0.01,1.28,1.8,9.23,2.98,7.63,29.08,11,-7.72,-28.12,9,0.009,-0.031,120.384,0.003,-0.016,-1.942,1.94,30.17,2.73,8.65,0,0,120.38,2,0.0149,0.0004,0.0161,0.0004,0,2,0,3,3,3,3,0.0471,0,0,0,0,0,31,16,0,32,-1,-1,-1
LOGGING,412505,2026-04-06T17:58:03,1775498283,993.76,33.54,163.51,1.283,1.801,9.241,-0.01,-4.94,0.01,255,0,0,0,0,0,0,0,0,0,0,0,0,0,0,0,0,0,0,0,0,0,255,993.76,33.54,163.51,0,0,0,0,0,0,0,0,0,0,0,0,0,0,0,0,0,1.301,1.84,9.199,0.002,-0.002,-0.002,-3.375,27.875,43.938,-0.023,-0.035,0.043,1.281,1.797,9.234,1.283,1.801,9.241,0.001,0,0,-4.048,30.258,44.783,-0.01,0,-0.01,1.28,1.8,9.23,3.02,7.69,29.36,11,-7.72,-28.12,9,0.009,-0.031,120.431,0.003,-0.016,-1.877,1.88,30.47,2.72,8.69,0,0,120.43,2,0.0125,0.0006,0.0137,0.0007,0,2,0,3,3,3,3,0.0471,0,0,0,0,0,42,16,0,1,-1,-1,-1
LOGGING,412551,2026-04-06T17:58:03,1775498283,993.76,33.54,163.51,1.281,1.801,9.245,-0.02,-4.96,0.01,255,0,0,0,0,0,0,0,0,0,0,0,0,0,0,0,0,0,0,0,0,0,255,993.76,33.54,163.51,0,0,0,0,0,0,0,0,0,0,0,0,0,0,0,0,0,1.266,1.801,9.266,-0.004,0,0,-3.375,27.875,43.938,-0.023,0.004,0.035,1.281,1.797,9.234,1.281,1.801,9.245,0,0,0,-4.048,30.258,44.783,-0.01,0,0.01,1.28,1.8,9.23,3.07,7.77,29.73,10.99,-7.74,-28.17,9,0.009,-0.032,120.335,0.003,-0.016,-1.934,1.93,30.87,2.73,8.74,0,0,120.34,2,0.0138,0.0003,0.0152,0.0004,0,2,0,3,3,3,3,0.0452,0,0,0,0,0,46,16,0,47,-1,-1,-1
LOGGING,412627,2026-04-06T17:58:03,1775498283,993.77,33.54,163.5,1.282,1.801,9.239,-0.02,-4.98,0,255,0,0,0,0,0,0,0,0,0,0,0,0,0,0,0,0,0,0,0,0,0,255,993.76,33.54,163.51,0,0,0,0,0,0,0,0,0,0,0,0,0,0,0,0,0,1.266,1.801,9.195,-0.006,0,0.01,-4.125,33.188,44.375,-0.023,0.004,-0.039,1.289,1.797,9.234,1.282,1.801,9.239,-0.001,0,0.001,-4.053,30.45,44.756,-0.01,0,0.01,1.28,1.8,9.23,3.14,7.89,30.3,10.99,-7.73,-28.18,9,0.009,-0.033,120.335,0.002,-0.016,-1.89,1.89,31.44,2.73,8.82,0,0,120.33,2,0.0138,0.0014,0.0154,0.0014,0,2,0,3,3,3,3,0.0459,0,0,0,0,0,76,17,0,1,-1,-1,-1
LOGGING,412677,2026-04-06T17:58:03,1775498283,993.77,33.54,163.5,1.282,1.801,9.232,-0.03,-5,-0.01,255,0,0,0,0,0,0,0,0,0,0,0,0,0,0,0,0,0,0,0,0,0,255,993.76,33.54,163.51,0,0,0,0,0,0,0,0,0,0,0,0,0,0,0,0,0,1.266,1.801,9.195,0.006,-0.002,0.002,-4.125,33.188,44.375,0.012,0.012,-0.004,1.289,1.797,9.234,1.282,1.801,9.232,-0.001,0,0.001,-4.053,30.45,44.756,-0.01,0,0,1.28,1.8,9.23,3.2,7.96,30.68,10.99,-7.74,-28.18,9,0.009,-0.034,120.365,0.001,-0.016,-1.833,1.83,31.85,2.72,8.87,0,0,120.36,3,0.0102,0.0016,0.0121,0.0018,0,2,0,3,3,3,3,0.0457,0,0,0,0,0,50,17,0,1,-1,-1,-1
LOGGING,412714,2026-04-06T17:58:03,1775498283,993.77,33.54,163.5,1.282,1.801,9.23,-0.03,-5.02,-0.01,255,0,0,0,0,0,0,0,0,0,0,0,0,0,0,0,0,0,0,0,0,0,255,993.76,33.54,163.51,0,0,0,0,0,0,0,0,0,0,0,0,0,0,0,0,0,1.266,1.801,9.195,-0.006,0.002,0.004,-4.125,33.188,44.375,-0.016,0.004,-0.031,1.289,1.789,9.234,1.282,1.801,9.23,-0.001,0,0.002,-4.053,30.45,44.756,-0.01,0,0,1.28,1.8,9.23,3.2,7.97,30.7,10.99,-7.74,-28.18,9,0.009,-0.035,120.29,0.001,-0.016,-1.876,1.88,32.18,2.73,8.92,0,0,120.29,1,0.009,0.0019,0.009,0.0019,0,2,0,3,3,3,3,0.0457,0,0,0,0,0,37,17,0,38,-1,-1,-1
LOGGING,412735,2026-04-06T17:58:03,1775498283,993.77,33.54,163.5,1.28,1.801,9.226,-0.03,-5.03,-0.01,255,0,0,0,0,0,0,0,0,0,0,0,0,0,0,0,0,0,0,0,0,0,255,993.76,33.54,163.51,0,0,0,0,0,0,0,0,0,0,0,0,0,0,0,0,0,1.266,1.801,9.195,0.002,0.004,0.004,-4.125,33.188,44.375,-0.008,0.004,-0.039,1.289,1.789,9.234,1.28,1.801,9.226,-0.001,0.001,0.002,-4.053,30.45,44.756,-0.01,0,-0.01,1.28,1.8,9.23,3.22,8,30.86,10.99,-7.74,-28.18,9,0.009,-0.035,120.372,0.001,-0.016,-1.792,1.79,32.34,2.71,8.94,0,0,120.37,1,0.0105,0.0021,0.0105,0.0021,0,2,0,3,3,3,3,0.0457,0,0,0,0,0,21,17,0,1,-1,-1,-1
LOGGING,412787,2026-04-06T17:58:03,1775498283,993.77,33.54,163.5,1.277,1.8,9.228,-0.03,-5.05,-0.01,255,0,0,0,0,0,0,0,0,0,0,0,0,0,0,0,0,0,0,0,0,0,255,993.76,33.54,163.51,0,0,0,0,0,0,0,0,0,0,0,0,0,0,0,0,0,1.266,1.762,9.227,0.006,0.002,-0.002,-3.438,30.75,44.812,-0.016,-0.035,-0.004,1.289,1.789,9.234,1.277,1.8,9.228,0,0,0.002,-4.025,30.464,44.759,-0.01,0,-0.01,1.28,1.8,9.23,3.26,8.06,31.19,11,-7.75,-28.19,9,0.009,-0.036,120.393,0.001,-0.016,-1.746,1.75,32.75,2.71,8.99,0,0,120.39,4,0.0136,0.0017,0.0137,0.0019,0,2,0,3,3,3,3,0.0449,0,0,0,0,0,52,17,0,2,-1,-1,-1
